$GPGSV,3,1,12,06,60,118,53,21,56,200,44,16,46,291,,10,34,055,*7D
$GPGSV,3,2,12,17,34,061,,02,24,310,,30,13,161,49,15,11,222,*77
$GPGSV,3,3,12,25,11,241,,13,07,341,,18,03,169,,24,01,053,*7C
$PMGNST,04.03,3,F,-88,00.0,-03462,23*4F
$GPGSV,3,1,12,06,60,118,53,21,56,200,44,16,46,291,,10,34,055,*7D
$GPGSV,3,2,12,17,34,061,,02,24,310,,30,13,161,49,15,11,222,*77
$GPGSV,3,3,12,25,11,241,,13,07,341,,18,03,169,,24,01,053,*7C
$PMGNST,04.03,3,F,-88,00.0,-03462,23*4F
$GPGSV,3,1,12,06,60,118,53,21,56,200,44,16,46,291,,10,34,055,*7D
$GPGSV,3,2,12,17,34,061,,02,24,310,,30,13,161,49,15,11,222,*77
$GPGSV,3,3,12,25,11,241,,13,07,341,,18,03,169,,24,01,053,*7C
$PMGNST,04.03,3,F,-88,00.0,-03462,23*4F
$GPGSV,3,1,12,06,60,118,53,21,56,200,44,16,46,291,,10,34,055,*7D
$GPGSV,3,2,12,17,34,061,,02,24,310,,30,13,161,49,15,11,222,*77
$GPGSV,3,3,12,25,11,241,,13,07,341,,18,03,169,,24,01,053,*7C
$PMGNST,04.03,3,F,-88,00.0,-03462,23*4F
$GPGSV,3,1,12,06,60,118,53,21,56,200,45,16,46,291,,10,34,055,*7C
$GPGSV,3,2,12,17,34,061,,02,24,310,,30,13,161,49,15,11,222,*77
$GPGSV,3,3,12,25,11,241,,13,07,341,,18,03,169,,24,01,053,*7C
$PMGNST,04.03,3,F,-88,00.0,-03462,23*4F
$GPGSV,3,1,12,06,60,118,53,21,56,200,45,16,46,291,,10,34,055,*7C
$GPGSV,3,2,12,17,34,061,,02,24,310,,30,13,161,49,15,11,222,*77
$GPGSV,3,3,12,25,11,241,,13,07,341,,18,03,169,,24,01,053,*7C
$PMGNST,04.03,3,F,-88,00.0,-03442,23*4D
$GPGSV,3,1,12,06,60,118,53,21,56,200,45,16,46,291,,10,34,055,*7C
$GPGSV,3,2,12,17,34,061,,02,24,310,,30,13,161,49,15,11,222,*77
$GPGSV,3,3,12,25,11,241,,13,07,341,,18,03,169,,24,01,053,*7C
$PMGNST,04.03,3,F,-88,00.0,-03442,23*4D
$GPGSV,3,1,12,06,60,118,53,21,56,200,45,16,46,291,,10,34,055,*7C
$GPGSV,3,2,12,17,34,061,,02,24,310,,30,13,161,49,15,11,222,*77
$GPGSV,3,3,12,25,11,241,,13,07,341,,18,03,169,,24,01,053,*7C
$PMGNST,04.03,3,F,-88,00.0,-03442,23*4D
$GPGSV,3,1,12,06,60,118,53,21,56,200,45,16,46,291,,10,34,055,*7C
$GPGSV,3,2,12,17,34,061,,02,24,310,,30,13,161,49,15,11,222,*77
$GPGSV,3,3,12,25,11,241,,13,07,341,,18,03,169,,24,01,053,*7C
$PMGNST,04.03,3,F,-88,00.0,-03442,23*4D
$GPGSV,3,1,12,06,60,118,53,21,56,200,45,16,46,291,,10,34,055,*7C
$GPGSV,3,2,12,17,34,061,,02,24,310,,30,13,161,49,15,11,222,*77
$GPGSV,3,3,12,25,11,241,,13,07,341,,18,03,169,,24,01,053,*7C
$PMGNST,04.03,3,F,-88,00.0,-03442,23*4D
$GPGSV,3,1,12,06,60,118,54,21,56,200,44,16,46,291,,10,34,055,*7A
$GPGSV,3,2,12,17,34,061,,02,24,310,,30,13,161,48,15,11,222,*76
$GPGSV,3,3,12,25,11,241,,13,07,341,,18,03,169,,24,01,053,*7C
$PMGNST,04.03,3,F,-88,00.0,-03442,23*4D
$GPGSV,3,1,12,06,60,118,54,21,56,200,46,16,46,291,,10,34,055,*78
$GPGSV,3,2,12,17,34,061,,02,24,310,,30,13,161,48,15,11,222,*76
$GPGSV,3,3,12,25,11,241,,13,07,341,,18,03,169,,24,01,053,*7C
$PMGNST,04.03,3,F,-88,00.0,-03442,23*4D
$GPGSV,3,1,12,06,60,118,54,21,56,200,46,16,46,291,,10,34,055,*78
$GPGSV,3,2,12,17,34,061,,02,24,310,,30,13,161,48,15,11,222,*76
$GPGSV,3,3,12,25,11,241,,13,07,341,,18,03,169,,24,01,053,*7C
$PMGNST,04.03,3,F,-88,00.0,-03442,23*4D
$GPGSV,3,1,12,06,60,118,54,21,56,200,45,16,46,291,,10,34,055,*7B
$GPGSV,3,2,12,17,34,061,,02,24,310,,30,13,161,48,15,11,222,*76
$GPGSV,3,3,12,25,11,241,,13,07,341,,18,03,169,,24,01,053,*7C
$PMGNST,04.03,3,F,-88,00.0,-03442,23*4D
$GPGSV,3,1,12,06,60,118,53,21,56,200,45,16,46,291,,10,34,055,*7C
$GPGSV,3,2,12,17,34,061,,02,24,310,,30,13,161,49,15,11,222,*77
$GPGSV,3,3,12,25,11,241,,13,07,341,,18,03,169,,24,01,053,*7C
$PMGNST,04.03,3,F,-88,00.0,-03442,23*4D
$GPGSV,3,1,12,06,60,118,54,21,56,200,45,16,46,291,,10,34,055,*7B
$GPGSV,3,2,12,17,34,061,,02,24,310,,30,13,161,48,15,11,222,*76
$GPGSV,3,3,12,25,11,241,,13,07,341,,18,03,169,,24,01,053,*7C
$PMGNST,04.03,3,F,-88,00.0,-03442,23*4D
$GPGSV,3,1,12,06,60,118,54,21,56,200,45,16,46,291,,10,34,055,*7B
$GPGSV,3,2,12,17,34,061,,02,24,310,,30,13,161,48,15,11,222,*76
$GPGSV,3,3,12,25,11,241,,13,07,341,,18,03,169,,24,01,053,*7C
$PMGNST,04.03,3,F,-88,00.0,-03424,23*4D
$GPGSV,3,1,12,06,60,118,53,21,56,200,45,16,46,291,,10,34,055,*7C
$GPGSV,3,2,12,17,34,061,,02,24,310,,30,13,161,49,15,11,222,*77
$GPGSV,3,3,12,25,11,241,,13,07,341,,18,03,169,,24,01,053,*7C
$PMGNST,04.03,3,F,-88,00.0,-03424,23*4D
$GPGSV,3,1,12,06,60,118,53,21,56,200,45,16,46,291,,10,34,055,*7C
$GPGSV,3,2,12,17,34,061,,02,24,310,,30,13,161,48,15,11,222,39*7C
$GPGSV,3,3,12,25,11,241,,13,07,341,,18,03,169,,24,01,053,*7C
$PMGNST,04.03,3,F,-88,00.0,-03424,23*4D
$GPGSV,3,1,12,06,60,118,53,21,56,200,45,16,46,291,,10,34,055,*7C
$GPGSV,3,2,12,17,34,061,,02,24,310,,30,13,161,48,15,11,222,40*72
$GPGSV,3,3,12,25,11,241,,13,07,341,,18,03,169,,24,01,053,*7C
$PMGNST,04.03,3,F,-88,00.0,-03424,23*4D
$GPGSV,3,1,12,06,60,118,53,21,56,200,45,16,46,291,,10,34,055,*7C
$GPGSV,3,2,12,17,34,061,,02,24,310,,30,13,161,49,15,11,222,40*73
$GPGSV,3,3,12,25,11,241,,13,07,341,,18,03,169,,24,01,053,*7C
$PMGNST,04.03,3,F,-88,00.0,-03424,23*4D
$GPGSV,3,1,12,06,60,118,53,21,56,200,45,16,46,291,,10,34,055,*7C
$GPGSV,3,2,12,17,34,061,,02,24,310,,30,13,161,48,15,11,222,39*7C
$GPGSV,3,3,12,25,11,241,,13,07,341,,18,03,169,,24,01,053,*7C
$PMGNST,04.03,3,F,-88,00.0,-03424,23*4D
$GPGSV,3,1,12,06,60,118,53,21,56,200,45,16,46,291,,10,34,055,*7C
$GPGSV,3,2,12,17,34,061,,02,24,310,,30,13,161,48,15,11,222,*76
$GPGSV,3,3,12,25,11,241,,13,07,341,,18,03,169,,24,01,053,*7C
$PMGNST,04.03,3,F,-88,00.0,-03424,23*4D
$GPGSV,3,1,12,06,60,118,53,21,56,200,44,16,46,291,,10,34,055,*7D
$GPGSV,3,2,12,17,34,061,,02,24,310,,30,13,161,49,15,11,222,*77
$GPGSV,3,3,12,25,11,241,,13,07,341,,18,03,169,,24,01,053,*7C
$PMGNST,04.03,3,F,-88,00.0,-03424,23*4D
$GPGSV,3,1,12,06,60,118,53,21,56,200,44,16,46,291,,10,34,055,*7D
$GPGSV,3,2,12,17,34,061,,02,24,310,,30,13,161,48,15,11,222,*76
$GPGSV,3,3,12,25,11,241,,13,07,341,,18,03,169,,24,01,053,*7C
$PMGNST,04.03,3,F,-88,00.0,-03424,23*4D
$GPGSV,3,1,12,06,60,118,53,21,56,200,44,16,46,291,,10,34,055,*7D
$GPGSV,3,2,12,17,34,061,,02,24,310,,30,13,161,49,15,11,222,*77
$GPGSV,3,3,12,25,11,241,,13,07,341,,18,03,169,,24,01,053,*7C
$PMGNST,04.03,3,F,-88,00.0,-03424,23*4D
$GPGSV,3,1,12,06,60,118,53,21,56,200,44,16,46,291,,10,34,055,*7D
$GPGSV,3,2,12,17,34,061,,02,24,310,,30,13,161,49,15,11,222,*77
$GPGSV,3,3,12,25,11,241,,13,07,341,,18,03,169,,24,01,053,*7C
$PMGNST,04.03,3,F,-88,00.0,-03409,23*42
$GPGSV,3,1,12,06,60,118,53,21,56,200,44,16,46,291,,10,34,055,*7D
$GPGSV,3,2,12,17,34,061,,02,24,310,,30,13,161,48,15,11,222,*76
$GPGSV,3,3,12,25,11,241,,13,07,341,,18,03,169,,24,01,053,*7C
$PMGNST,04.03,3,F,-88,00.0,-03409,23*42
$GPGSV,3,1,12,06,60,118,53,21,56,200,44,16,46,291,,10,34,055,*7D
$GPGSV,3,2,12,17,34,061,,02,24,310,,30,13,161,48,15,11,222,*76
$GPGSV,3,3,12,25,11,241,,13,07,341,,18,03,169,,24,01,053,*7C
$PMGNST,04.03,3,F,-88,00.0,-03409,23*42
$GPGSV,3,1,12,06,60,118,52,21,56,200,44,16,46,291,,10,34,055,*7C
$GPGSV,3,2,12,17,34,061,,02,24,310,,30,13,161,49,15,11,222,*77
$GPGSV,3,3,12,25,11,241,,13,07,341,,18,03,169,,24,01,053,*7C
$PMGNST,04.03,3,F,-88,00.0,-03409,23*42
$GPGSV,3,1,12,06,60,118,52,21,56,200,44,16,46,291,,10,34,055,*7C
$GPGSV,3,2,12,17,34,061,,02,24,310,,30,13,161,49,15,11,222,*77
$GPGSV,3,3,12,25,11,241,,13,07,341,,18,03,169,,24,01,053,*7C
$PMGNST,04.03,3,F,-88,00.0,-03409,23*42
$GPGSV,3,1,12,06,60,118,52,21,56,200,44,16,46,291,,10,34,055,*7C
$GPGSV,3,2,12,17,34,061,,02,24,310,,30,13,161,49,15,11,222,*77
$GPGSV,3,3,12,25,11,241,,13,07,341,,18,03,169,,24,01,053,*7C
$PMGNST,04.03,3,F,-88,00.0,-03409,23*42
$GPGSV,3,1,12,06,60,118,52,21,56,200,44,16,46,291,,10,34,055,*7C
$GPGSV,3,2,12,17,34,061,,02,24,310,,30,13,161,49,15,11,222,*77
$GPGSV,3,3,12,25,11,241,,13,07,341,,18,03,169,,24,01,053,*7C
$PMGNST,04.03,3,F,-88,00.0,-03409,23*42
$GPGSV,3,1,12,06,60,118,52,21,56,200,44,16,46,291,,10,34,055,*7C
$GPGSV,3,2,12,17,34,061,,02,24,310,,30,13,161,49,15,11,222,*77
$GPGSV,3,3,12,25,11,241,,13,07,341,,18,03,169,,24,01,053,*7C
$PMGNST,04.03,3,F,-88,00.0,-03409,23*42
$GPGSV,3,1,12,06,60,118,52,21,56,200,44,16,46,291,,10,34,055,*7C
$GPGSV,3,2,12,17,34,061,,02,24,310,,30,13,161,49,15,11,222,*77
$GPGSV,3,3,12,25,11,241,,13,07,341,,18,03,169,,24,01,053,*7C
$PMGNST,04.03,3,F,-88,00.0,-03409,23*42
$GPGSV,3,1,12,06,60,118,52,21,56,200,44,16,46,291,,10,34,055,*7C
$GPGSV,3,2,12,17,34,061,,02,24,310,,30,13,161,49,15,11,222,*77
$GPGSV,3,3,12,25,11,241,,13,07,341,,18,03,169,,24,01,053,*7C
$PMGNST,04.03,3,F,-88,00.0,-03409,23*42
$GPGSV,3,1,12,06,60,118,52,21,56,200,44,16,46,291,,10,34,055,*7C
$GPGSV,3,2,12,17,34,061,,02,24,310,,30,13,161,49,15,11,222,*77
$GPGSV,3,3,12,25,11,241,,13,07,341,,18,03,169,,24,01,053,*7C
$PMGNST,04.03,3,F,-88,00.0,-03397,23*42
$GPGSV,3,1,12,06,60,118,52,21,56,200,44,16,46,291,,10,34,055,*7C
$GPGSV,3,2,12,17,34,061,,02,24,310,,30,13,161,49,15,11,222,*77
$GPGSV,3,3,12,25,11,241,,13,07,341,,18,03,169,,24,01,053,*7C
$PMGNST,04.03,3,F,-88,00.0,-03397,23*42
$GPGSV,3,1,12,06,60,118,52,21,56,200,43,16,46,291,,10,34,055,*7B
$GPGSV,3,2,12,17,34,061,,02,24,310,,30,13,161,48,15,11,222,*76
$GPGSV,3,3,12,25,11,241,,13,07,341,,18,03,169,,24,01,053,*7C
$PMGNST,04.03,3,F,-88,00.0,-03397,23*42
$GPGSV,3,1,12,06,60,118,52,21,56,200,44,16,46,291,,10,34,055,*7C
$GPGSV,3,2,12,17,34,061,,02,24,310,,30,13,161,48,15,11,222,*76
$GPGSV,3,3,12,25,11,241,,13,07,341,,18,03,169,,24,01,053,*7C
$PMGNST,04.03,3,F,-88,00.0,-03397,23*42
$GPGSV,3,1,12,06,60,118,52,21,56,200,43,16,46,291,,10,34,055,*7B
$GPGSV,3,2,12,17,34,061,,02,24,310,,30,13,161,49,15,11,222,*77
$GPGSV,3,3,12,25,11,241,,13,07,341,,18,03,169,,24,01,053,*7C
$PMGNST,04.03,3,F,-88,00.0,-03397,23*42
$GPGSV,3,1,12,06,60,118,52,21,56,200,42,16,46,291,,10,34,055,*7A
$GPGSV,3,2,12,17,34,061,,02,24,310,,30,13,161,48,15,11,222,*76
$GPGSV,3,3,12,25,11,241,,13,07,341,,18,03,169,,24,01,053,*7C
$PMGNST,04.03,3,F,-88,00.0,-03397,23*42
$GPGSV,3,1,12,06,60,118,52,21,56,200,42,16,46,291,,10,34,055,*7A
$GPGSV,3,2,12,17,34,061,,02,24,310,,30,13,161,48,15,11,222,*76
$GPGSV,3,3,12,25,11,241,,13,07,341,,18,03,169,,24,01,053,*7C
$PMGNST,04.03,3,F,-88,00.0,-03397,23*42
$GPGSV,3,1,12,06,60,118,52,21,56,200,42,16,46,291,,10,34,055,*7A
$GPGSV,3,2,12,17,34,061,,02,24,310,,30,13,161,48,15,11,222,*76
$GPGSV,3,3,12,25,11,241,,13,07,341,,18,03,169,,24,01,053,*7C
$PMGNST,04.03,3,F,-88,00.0,-03397,23*42
$GPGSV,3,1,12,06,60,118,52,21,56,200,42,16,46,291,,10,34,055,*7A
$GPGSV,3,2,12,17,34,061,,02,24,310,,30,13,161,48,15,11,222,*76
$GPGSV,3,3,12,25,11,241,,13,07,341,,18,03,169,,24,01,053,*7C
$PMGNST,04.03,3,F,-88,00.0,-03397,23*42
$GPGSV,3,1,12,06,60,118,52,21,56,200,42,16,46,291,,10,34,055,*7A
$GPGSV,3,2,12,17,34,061,,02,24,310,,30,13,161,49,15,11,222,39*7D
$GPGSV,3,3,12,25,11,241,,13,07,341,,18,03,169,,24,01,053,*7C
$PMGNST,04.03,3,F,-88,00.0,-03397,23*42
$GPGSV,3,1,12,06,60,118,52,21,56,200,42,16,46,291,,10,34,055,*7A
$GPGSV,3,2,12,17,34,061,,02,24,310,,30,13,161,49,15,11,222,39*7D
$GPGSV,3,3,12,25,11,241,,13,07,341,,18,03,169,,24,01,053,*7C
$PMGNST,04.03,3,F,-88,00.0,-03385,23*41
$GPGSV,3,1,12,06,60,118,52,21,56,200,42,16,46,291,,10,34,055,*7A
$GPGSV,3,2,12,17,34,061,,02,24,310,,30,13,161,49,15,11,222,39*7D
$GPGSV,3,3,12,25,11,241,,13,07,341,,18,03,169,,24,01,053,*7C
$PMGNST,04.03,3,F,-88,00.0,-03385,23*41
$GPGSV,3,1,12,06,60,118,52,21,56,200,42,16,46,291,,10,34,055,*7A
$GPGSV,3,2,12,17,34,061,,02,24,310,,30,13,161,49,15,11,222,*77
$GPGSV,3,3,12,25,11,241,,13,07,341,,18,03,169,,24,01,053,*7C
$PMGNST,04.03,3,F,-88,00.0,-03383,23*47
$GPGSV,3,1,12,06,60,118,52,21,56,200,41,16,46,291,,10,34,055,*79
$GPGSV,3,2,12,17,34,061,,02,24,310,,30,13,161,49,15,11,222,*77
$GPGSV,3,3,12,25,11,241,,13,07,341,,18,03,169,,24,01,053,*7C
$PMGNST,04.03,3,F,-88,00.0,-03380,23*44
$GPGSV,3,1,12,06,60,118,52,21,56,200,41,16,46,291,,10,34,055,*79
$GPGSV,3,2,12,17,34,061,,02,24,310,,30,13,161,48,15,11,222,*76
$GPGSV,3,3,12,25,11,241,,13,07,341,,18,03,169,,24,01,053,*7C
$PMGNST,04.03,3,F,-88,00.0,-03380,23*44
$GPGSV,3,1,12,06,60,118,52,21,56,200,41,16,46,291,,10,34,055,*79
$GPGSV,3,2,12,17,34,061,,02,24,310,,30,13,161,48,15,11,222,*76
$GPGSV,3,3,12,25,11,241,,13,07,341,,18,03,169,,24,01,053,*7C
$PMGNST,04.03,3,F,-88,00.0,-03380,23*44
$GPGSV,3,1,12,06,60,118,52,21,56,200,42,16,46,291,,10,34,055,*7A
$GPGSV,3,2,12,17,34,061,,02,24,310,,30,13,161,48,15,11,222,*76
$GPGSV,3,3,12,25,11,241,,13,07,341,,18,03,169,,24,01,053,*7C
$PMGNST,04.03,3,F,-88,00.0,-03380,23*44
$GPGSV,3,1,12,06,60,118,52,21,56,200,41,16,46,291,,10,34,055,*79
$GPGSV,3,2,12,17,34,061,,02,24,310,,30,13,161,49,15,11,222,*77
$GPGSV,3,3,12,25,11,241,,13,07,341,,18,03,169,,24,01,053,*7C
$PMGNST,04.03,3,F,-88,00.0,-03380,23*44
$GPGSV,3,1,12,06,60,118,52,21,56,200,42,16,46,291,,10,34,055,*7A
$GPGSV,3,2,12,17,34,061,,02,24,310,,30,13,161,49,15,11,222,*77
$GPGSV,3,3,12,25,11,241,,13,07,341,,18,03,169,,24,01,053,*7C
$PMGNST,04.03,3,F,-88,00.0,-03380,23*44
$GPGSV,3,1,12,06,60,118,52,21,56,200,41,16,46,291,,10,34,055,*79
$GPGSV,3,2,12,17,34,061,,02,24,310,,30,13,161,48,15,11,222,*76
$GPGSV,3,3,12,25,11,241,,13,07,341,,18,03,169,,24,01,053,*7C
$PMGNST,04.03,3,F,-88,00.0,-03380,23*44
$GPGSV,3,1,12,06,60,118,52,21,56,200,41,16,46,291,,10,34,055,*79
$GPGSV,3,2,12,17,34,061,,02,24,310,,30,13,161,48,15,11,222,*76
$GPGSV,3,3,12,25,11,241,,13,07,341,,18,03,169,,24,01,053,*7C
$PMGNST,04.03,3,F,-88,00.0,-03380,23*44
$GPGSV,3,1,12,06,60,118,52,21,56,200,41,16,46,291,,10,34,055,*79
$GPGSV,3,2,12,17,34,061,,02,24,310,,30,13,161,48,15,11,222,*76
$GPGSV,3,3,12,25,11,241,,13,07,341,,18,03,169,,24,01,053,*7C
$PMGNST,04.03,3,F,-88,00.0,-03380,23*44
$GPGSV,3,1,12,06,60,118,52,21,56,200,41,16,46,291,,10,34,055,*79
$GPGSV,3,2,12,17,34,061,,02,24,310,,30,13,161,48,15,11,222,*76
$GPGSV,3,3,12,25,11,241,,13,07,341,,18,03,169,,24,01,053,*7C
$PMGNST,04.03,3,F,-88,00.0,-03380,23*44
$GPGSV,3,1,12,06,60,118,52,21,56,200,41,16,46,291,,10,34,055,*79
$GPGSV,3,2,12,17,34,061,,02,24,310,,30,13,161,48,15,11,222,*76
$GPGSV,3,3,12,25,11,241,,13,07,341,,18,03,169,,24,01,053,*7C
$PMGNST,04.03,3,F,-88,00.0,-03376,23*4D
$GPGSV,3,1,12,06,60,118,52,21,56,200,41,16,46,291,,10,34,055,*79
$GPGSV,3,2,12,17,34,061,,02,24,310,,30,13,161,48,15,11,222,*76
$GPGSV,3,3,12,25,11,241,,13,07,341,,18,03,169,,24,01,053,*7C
$PMGNST,04.03,3,F,-88,00.0,-03376,23*4D
$GPGSV,3,1,12,06,60,118,52,21,56,200,41,16,46,291,,10,34,055,*79
$GPGSV,3,2,12,17,34,061,,02,24,310,,30,13,161,48,15,11,222,*76
$GPGSV,3,3,12,25,11,241,,13,07,341,,18,03,169,,24,01,053,*7C
$PMGNST,04.03,3,F,-88,00.0,-03376,23*4D
$GPGSV,3,1,12,06,60,118,52,21,56,200,41,16,46,291,,10,34,055,*79
$GPGSV,3,2,12,17,34,061,,02,24,310,,30,13,161,48,15,11,222,*76
$GPGSV,3,3,12,25,11,241,,13,07,341,,18,03,169,,24,01,053,*7C
$PMGNST,04.03,3,F,-88,00.0,-03376,23*4D
$GPGSV,3,1,12,06,60,118,52,21,56,200,41,16,46,291,,10,34,055,*79
$GPGSV,3,2,12,17,34,061,,02,24,310,,30,13,161,48,15,11,222,*76
$GPGSV,3,3,12,25,11,241,,13,07,341,,18,03,169,,24,01,053,*7C
$PMGNST,04.03,3,F,-88,00.0,-03376,23*4D
$GPGSV,3,1,12,06,60,118,52,21,56,200,40,16,46,291,,10,34,055,*78
$GPGSV,3,2,12,17,34,061,,02,24,310,,30,13,161,48,15,11,222,*76
$GPGSV,3,3,12,25,11,241,,13,07,341,,18,03,169,,24,01,053,*7C
$PMGNST,04.03,3,F,-88,00.0,-03376,23*4D
$GPGSV,3,1,12,06,60,118,52,21,56,200,40,16,46,291,,10,34,055,*78
$GPGSV,3,2,12,17,34,061,,02,24,310,,30,13,161,48,15,11,222,*76
$GPGSV,3,3,12,25,11,241,,13,07,341,,18,03,169,,24,01,053,*7C
$PMGNST,04.03,3,F,-88,00.0,-03376,23*4D
$GPGSV,3,1,12,06,60,118,52,21,56,200,40,16,46,291,,10,34,055,*78
$GPGSV,3,2,12,17,34,061,,02,24,310,,30,13,161,48,15,11,222,*76
$GPGSV,3,3,12,25,11,241,,13,07,341,,18,03,169,,24,01,053,*7C
$PMGNST,04.03,3,F,-88,00.0,-03376,23*4D
$GPGSV,3,1,12,06,60,118,52,21,56,200,40,16,46,291,,10,34,055,*78
$GPGSV,3,2,12,17,34,061,,02,24,310,,30,13,161,48,15,11,222,*76
$GPGSV,3,3,12,25,11,241,,13,07,341,,18,03,169,,24,01,053,*7C
$PMGNST,04.03,3,F,-88,00.0,-03376,23*4D
$GPGSV,3,1,12,06,60,118,52,21,56,200,40,16,46,291,,10,34,055,*78
$GPGSV,3,2,12,17,34,061,,02,24,310,,30,13,161,48,15,11,222,*76
$GPGSV,3,3,12,25,11,241,,13,07,341,,18,03,169,,24,01,053,*7C
$PMGNST,04.03,3,F,-88,00.0,-03376,23*4D
$GPGSV,3,1,12,06,60,118,52,21,56,200,40,16,46,291,,10,34,055,*78
$GPGSV,3,2,12,17,34,061,,02,24,310,,30,13,161,48,15,11,222,*76
$GPGSV,3,3,12,25,11,241,,13,07,341,,18,03,169,,24,01,053,*7C
$PMGNST,04.03,3,F,-88,00.0,-03368,23*42
$GPGSV,3,1,12,06,60,118,52,21,56,200,39,16,46,291,,10,34,055,*76
$GPGSV,3,2,12,17,34,061,,02,24,310,,30,13,161,48,15,11,222,*76
$GPGSV,3,3,12,25,11,241,,13,07,341,,18,03,169,,24,01,053,*7C
$PMGNST,04.03,3,F,-88,00.0,-03368,23*42
$GPGSV,3,1,12,06,60,118,52,21,56,200,39,16,46,291,,10,34,055,*76
$GPGSV,3,2,12,17,34,061,,02,24,310,,30,13,161,48,15,11,222,*76
$GPGSV,3,3,12,25,11,241,,13,07,341,,18,03,169,,24,01,053,*7C
$PMGNST,04.03,3,F,-88,00.0,-03368,23*42
$GPGSV,3,1,12,06,60,118,52,21,56,200,39,16,46,291,,10,34,055,*76
$GPGSV,3,2,12,17,34,061,,02,24,310,,30,13,161,48,15,11,222,*76
$GPGSV,3,3,12,25,11,241,,13,07,341,,18,03,169,,24,01,053,*7C
$PMGNST,04.03,3,F,-88,00.0,-03368,23*42
$GPGSV,3,1,12,06,60,118,52,21,56,200,,16,46,291,,10,34,055,*7C
$GPGSV,3,2,12,17,34,061,,02,24,310,,30,13,161,48,15,11,222,*76
$GPGSV,3,3,12,25,11,241,,13,07,341,,18,03,169,,24,01,053,*7C
$PMGNST,04.03,3,F,-88,00.0,-03368,23*42
$GPGSV,3,1,12,06,60,118,52,21,56,200,,16,46,291,,10,34,055,*7C
$GPGSV,3,2,12,17,34,061,,02,24,310,,30,13,161,48,15,11,222,*76
$GPGSV,3,3,12,25,11,241,,13,07,341,,18,03,169,,24,01,053,*7C
$PMGNST,04.03,3,F,-88,00.0,-03364,23*4E
$GPGSV,3,1,12,06,59,118,52,21,57,200,,16,47,290,,10,33,054,*71
$GPGSV,3,2,12,17,33,061,,02,25,309,,15,12,222,,30,12,161,48*7A
$GPGSV,3,3,12,25,10,240,,13,07,340,,18,04,169,,24,01,053,*7A
$PMGNST,04.03,3,F,-88,00.0,-03314,23*49
$GPGSV,3,1,12,06,59,118,51,21,57,200,,16,47,290,,10,33,054,*72
$GPGSV,3,2,12,17,33,061,,02,25,309,,15,12,222,,30,12,161,48*7A
$GPGSV,3,3,12,25,10,240,,13,07,340,,18,04,169,,24,01,053,*7A
$PMGNST,04.03,3,F,-88,00.0,-03314,23*49
$GPGSV,3,1,12,06,59,118,52,21,57,200,,16,47,290,,10,33,054,*71
$GPGSV,3,2,12,17,33,061,,02,25,309,,15,12,222,,30,12,161,48*7A
$GPGSV,3,3,12,25,10,240,,13,07,340,,18,04,169,,24,01,053,*7A
$PMGNST,04.03,3,F,-88,00.0,-03314,23*49
$GPGSV,3,1,12,06,59,118,52,21,57,200,,16,47,290,,10,33,054,*71
$GPGSV,3,2,12,17,33,061,,02,25,309,,15,12,222,,30,12,161,48*7A
$GPGSV,3,3,12,25,10,240,,13,07,340,,18,04,169,,24,01,053,*7A
$PMGNST,04.03,3,F,-88,00.0,-03314,23*49
$GPGSV,3,1,12,06,59,118,52,21,57,200,,16,47,290,,10,33,054,*71
$GPGSV,3,2,12,17,33,061,,02,25,309,,15,12,222,,30,12,161,48*7A
$GPGSV,3,3,12,25,10,240,,13,07,340,,18,04,169,,24,01,053,*7A
$PMGNST,04.03,3,F,-88,00.0,-03314,23*49
$GPGSV,3,1,12,06,59,118,52,21,57,200,,16,47,290,,10,33,054,*71
$GPGSV,3,2,12,17,33,061,,02,25,309,,15,12,222,,30,12,161,48*7A
$GPGSV,3,3,12,25,10,240,,13,07,340,,18,04,169,,24,01,053,*7A
$PMGNST,04.03,3,F,-88,00.0,-03314,23*49
$GPGSV,3,1,12,06,59,118,52,21,57,200,,16,47,290,,10,33,054,*71
$GPGSV,3,2,12,17,33,061,,02,25,309,,15,12,222,,30,12,161,48*7A
$GPGSV,3,3,12,25,10,240,,13,07,340,,18,04,169,,24,01,053,*7A
$PMGNST,04.03,3,F,-88,00.0,-03314,23*49
$GPGSV,3,1,12,06,59,118,52,21,57,200,,16,47,290,,10,33,054,*71
$GPGSV,3,2,12,17,33,061,,02,25,309,,15,12,222,,30,12,161,48*7A
$GPGSV,3,3,12,25,10,240,,13,07,340,,18,04,169,,24,01,053,*7A
$PMGNST,04.03,3,F,-88,00.0,-03314,23*49
$GPGSV,3,1,12,06,59,118,52,21,57,200,,16,47,290,,10,33,054,*71
$GPGSV,3,2,12,17,33,061,,02,25,309,,15,12,222,,30,12,161,48*7A
$GPGSV,3,3,12,25,10,240,,13,07,340,,18,04,169,,24,01,053,*7A
$PMGNST,04.03,3,F,-88,00.0,-03314,23*49
$GPGSV,3,1,12,06,59,118,52,21,57,200,,16,47,290,,10,33,054,*71
$GPGSV,3,2,12,17,33,061,,02,25,309,,15,12,222,,30,12,161,48*7A
$GPGSV,3,3,12,25,10,240,,13,07,340,,18,04,169,,24,01,053,*7A
$PMGNST,04.03,3,F,-88,00.0,-03314,23*49
$GPGSV,3,1,12,06,59,118,52,21,57,200,,16,47,290,,10,33,054,*71
$GPGSV,3,2,12,17,33,061,,02,25,309,,15,12,222,,30,12,161,48*7A
$GPGSV,3,3,12,25,10,240,,13,07,340,,18,04,169,,24,01,053,*7A
$PMGNST,04.03,3,F,-88,00.0,-03310,23*4D
$GPGSV,3,1,12,06,59,118,52,21,57,200,,16,47,290,,10,33,054,*71
$GPGSV,3,2,12,17,33,061,,02,25,309,,15,12,222,,30,12,161,48*7A
$GPGSV,3,3,12,25,10,240,,13,07,340,,18,04,169,,24,01,053,*7A
$PMGNST,04.03,3,F,-88,00.0,-03310,23*4D
$GPGSV,3,1,12,06,59,118,53,21,57,200,,16,47,290,,10,33,054,*70
$GPGSV,3,2,12,17,33,061,,02,25,309,,15,12,222,,30,12,161,47*75
$GPGSV,3,3,12,25,10,240,,13,07,340,,18,04,169,,24,01,053,*7A
$PMGNST,04.03,3,F,-88,00.0,-03310,23*4D
$GPGSV,3,1,12,06,59,118,53,21,57,200,,16,47,290,,10,33,054,*70
$GPGSV,3,2,12,17,33,061,,02,25,309,,15,12,222,,30,12,161,47*75
$GPGSV,3,3,12,25,10,240,,13,07,340,,18,04,169,,24,01,053,*7A
$PMGNST,04.03,3,F,-88,00.0,-03310,23*4D
$GPGSV,3,1,12,06,59,118,53,21,57,200,,16,47,290,,10,33,054,*70
$GPGSV,3,2,12,17,33,061,,02,25,309,,15,12,222,,30,12,161,48*7A
$GPGSV,3,3,12,25,10,240,,13,07,340,,18,04,169,,24,01,053,*7A
$PMGNST,04.03,3,F,-88,00.0,-03310,23*4D
$GPGSV,3,1,12,06,59,118,53,21,57,200,43,16,47,290,,10,33,054,*77
$GPGSV,3,2,12,17,33,061,,02,25,309,,15,12,222,,30,12,161,47*75
$GPGSV,3,3,12,25,10,240,,13,07,340,,18,04,169,,24,01,053,*7A
$PMGNST,04.03,3,F,-88,00.0,-03310,23*4D
$GPGSV,3,1,12,06,59,118,53,21,57,200,44,16,47,290,,10,33,054,*70
$GPGSV,3,2,12,17,33,061,,02,25,309,,15,12,222,,30,12,161,47*75
$GPGSV,3,3,12,25,10,240,,13,07,340,,18,04,169,,24,01,053,*7A
$PMGNST,04.03,3,F,-88,00.0,-03310,23*4D
$GPGSV,3,1,12,06,59,118,53,21,57,200,42,16,47,290,,10,33,054,*76
$GPGSV,3,2,12,17,33,061,,02,25,309,,15,12,222,,30,12,161,48*7A
$GPGSV,3,3,12,25,10,240,,13,07,340,,18,04,169,,24,01,053,*7A
$PMGNST,04.03,3,F,-88,00.0,-03309,23*45
$GPGSV,3,1,12,06,59,118,53,21,57,200,42,16,47,290,,10,33,054,*76
$GPGSV,3,2,12,17,33,061,,02,25,309,,15,12,222,,30,12,161,48*7A
$GPGSV,3,3,12,25,10,240,,13,07,340,,18,04,169,,24,01,053,*7A
$PMGNST,04.03,3,F,-88,00.0,-03309,23*45
$GPGSV,3,1,12,06,59,118,53,21,57,200,42,16,47,290,,10,33,054,*76
$GPGSV,3,2,12,17,33,061,,02,25,309,,15,12,222,,30,12,161,48*7A
$GPGSV,3,3,12,25,10,240,,13,07,340,,18,04,169,,24,01,053,*7A
$PMGNST,04.03,3,F,-88,00.0,-03309,23*45
$GPGSV,3,1,12,06,59,118,53,21,57,200,39,16,47,290,,10,33,054,*7A
$GPGSV,3,2,12,17,33,061,,02,25,309,,15,12,222,,30,12,161,49*7B
$GPGSV,3,3,12,25,10,240,,13,07,340,,18,04,169,,24,01,053,*7A
$PMGNST,04.03,3,F,-88,00.0,-03309,23*45
$GPGSV,3,1,12,06,59,118,53,21,57,200,36,16,47,290,,10,33,054,*75
$GPGSV,3,2,12,17,33,061,,02,25,309,,15,12,222,,30,12,161,49*7B
$GPGSV,3,3,12,25,10,240,,13,07,340,,18,04,169,,24,01,053,*7A
$PMGNST,04.03,3,F,-88,00.0,-03309,23*45
$GPGSV,3,1,12,06,59,118,53,21,57,200,36,16,47,290,,10,33,054,*75
$GPGSV,3,2,12,17,33,061,,02,25,309,,15,12,222,,30,12,161,49*7B
$GPGSV,3,3,12,25,10,240,,13,07,340,,18,04,169,,24,01,053,*7A
$PMGNST,04.03,3,F,-88,00.0,-03309,23*45
$GPGSV,3,1,12,06,59,118,53,21,57,200,44,16,47,290,,10,33,054,*70
$GPGSV,3,2,12,17,33,061,,02,25,309,,15,12,222,,30,12,161,48*7A
$GPGSV,3,3,12,25,10,240,,13,07,340,,18,04,169,,24,01,053,*7A
$PMGNST,04.03,3,F,-88,00.0,-03309,23*45
$GPGSV,3,1,12,06,59,118,52,21,57,200,46,16,47,290,,10,33,054,*73
$GPGSV,3,2,12,17,33,061,,02,25,309,,15,12,222,,30,12,161,48*7A
$GPGSV,3,3,12,25,10,240,,13,07,340,,18,04,169,,24,01,053,*7A
$PMGNST,04.03,3,F,-88,00.0,-03309,23*45
$GPGSV,3,1,12,06,59,118,52,21,57,200,46,16,47,290,,10,33,054,*73
$GPGSV,3,2,12,17,33,061,,02,25,309,,15,12,222,,30,12,161,48*7A
$GPGSV,3,3,12,25,10,240,,13,07,340,,18,04,169,,24,01,053,*7A
$PMGNST,04.03,3,F,-88,00.0,-03309,23*45
$GPGSV,3,1,12,06,59,118,52,21,57,200,46,16,47,290,,10,33,054,*73
$GPGSV,3,2,12,17,33,061,,02,25,309,,15,12,222,,30,12,161,48*7A
$GPGSV,3,3,12,25,10,240,,13,07,340,,18,04,169,,24,01,053,*7A
$PMGNST,04.03,3,F,-88,00.0,-03309,23*45
$GPGSV,3,1,12,06,59,118,52,21,57,200,46,16,47,290,,10,33,054,*73
$GPGSV,3,2,12,17,33,061,,02,25,309,,15,12,222,,30,12,161,48*7A
$GPGSV,3,3,12,25,10,240,,13,07,340,,18,04,169,,24,01,053,*7A
$PMGNST,04.03,3,F,-88,00.0,-03307,23*4B
$GPGSV,3,1,12,06,59,118,52,21,57,200,45,16,47,290,,10,33,054,*70
$GPGSV,3,2,12,17,33,061,,02,25,309,,15,12,222,,30,12,161,48*7A
$GPGSV,3,3,12,25,10,240,,13,07,340,,18,04,169,,24,01,053,*7A
$PMGNST,04.03,3,F,-88,00.0,-03307,23*4B
$GPGSV,3,1,12,06,59,118,52,21,57,200,45,16,47,290,,10,33,054,*70
$GPGSV,3,2,12,17,33,061,,02,25,309,,15,12,222,,30,12,161,48*7A
$GPGSV,3,3,12,25,10,240,,13,07,340,,18,04,169,,24,01,053,*7A
$PMGNST,04.03,3,F,-88,00.0,-03307,23*4B
$GPGSV,3,1,12,06,59,118,52,21,57,200,45,16,47,290,,10,33,054,*70
$GPGSV,3,2,12,17,33,061,,02,25,309,,15,12,222,,30,12,161,48*7A
$GPGSV,3,3,12,25,10,240,,13,07,340,,18,04,169,,24,01,053,*7A
$PMGNST,04.03,3,F,-88,00.0,-03307,23*4B
$GPGSV,3,1,12,06,59,118,52,21,57,200,45,16,47,290,,10,33,054,*70
$GPGSV,3,2,12,17,33,061,,02,25,309,,15,12,222,,30,12,161,48*7A
$GPGSV,3,3,12,25,10,240,,13,07,340,,18,04,169,,24,01,053,*7A
$PMGNST,04.03,3,F,-88,00.0,-03307,23*4B
$GPGSV,3,1,12,06,59,118,53,21,57,200,45,16,47,290,,10,33,054,*71
$GPGSV,3,2,12,17,33,061,,02,25,309,,15,12,222,,30,12,161,48*7A
$GPGSV,3,3,12,25,10,240,,13,07,340,,18,04,169,,24,01,053,*7A
$PMGNST,04.03,3,F,-88,00.0,-03307,23*4B
$GPGSV,3,1,12,06,59,118,53,21,57,200,45,16,47,290,,10,33,054,*71
$GPGSV,3,2,12,17,33,061,,02,25,309,,15,12,222,,30,12,161,48*7A
$GPGSV,3,3,12,25,10,240,,13,07,340,,18,04,169,,24,01,053,*7A
$PMGNST,04.03,3,F,-88,00.0,-03307,23*4B
$GPGSV,3,1,12,06,59,118,53,21,57,200,45,16,47,290,,10,33,054,*71
$GPGSV,3,2,12,17,33,061,,02,25,309,,15,12,222,,30,12,161,48*7A
$GPGSV,3,3,12,25,10,240,,13,07,340,,18,04,169,,24,01,053,*7A
$PMGNST,04.03,3,F,-88,00.0,-03307,23*4B
$GPGSV,3,1,12,06,59,118,53,21,57,200,45,16,47,290,,10,33,054,*71
$GPGSV,3,2,12,17,33,061,,02,25,309,,15,12,222,,30,12,161,48*7A
$GPGSV,3,3,12,25,10,240,,13,07,340,,18,04,169,,24,01,053,*7A
$PMGNST,04.03,3,F,-88,00.0,-03307,23*4B
$GPGSV,3,1,12,06,59,118,53,21,57,200,45,16,47,290,,10,33,054,*71
$GPGSV,3,2,12,17,33,061,,02,25,309,,15,12,222,,30,12,161,48*7A
$GPGSV,3,3,12,25,10,240,,13,07,340,,18,04,169,,24,01,053,*7A
$PMGNST,04.03,3,F,-88,00.0,-03307,23*4B
$GPGSV,3,1,12,06,59,118,53,21,57,200,45,16,47,290,,10,33,054,*71
$GPGSV,3,2,12,17,33,061,,02,25,309,,15,12,222,,30,12,161,48*7A
$GPGSV,3,3,12,25,10,240,,13,07,340,,18,04,169,,24,01,053,*7A
$PMGNST,04.03,3,F,-88,00.0,-03307,23*4B
$GPGSV,3,1,12,06,59,118,53,21,57,200,45,16,47,290,,10,33,054,*71
$GPGSV,3,2,12,17,33,061,,02,25,309,,15,12,222,,30,12,161,47*75
$GPGSV,3,3,12,25,10,240,,13,07,340,,18,04,169,,24,01,053,*7A
$PMGNST,04.03,3,F,-88,00.0,-03307,23*4B
$GPGSV,3,1,12,06,59,118,53,21,57,200,45,16,47,290,,10,33,054,*71
$GPGSV,3,2,12,17,33,061,,02,25,309,,15,12,222,39,30,12,161,48*70
$GPGSV,3,3,12,25,10,240,,13,07,340,,18,04,169,,24,01,053,*7A
$PMGNST,04.03,3,F,-88,00.0,-03307,23*4B
$GPGSV,3,1,12,06,59,118,53,21,57,200,45,16,47,290,,10,33,054,*71
$GPGSV,3,2,12,17,33,061,,02,25,309,,15,12,222,38,30,12,161,48*71
$GPGSV,3,3,12,25,10,240,,13,07,340,,18,04,169,,24,01,053,*7A
$PMGNST,04.03,3,F,-88,00.0,-03307,23*4B
$GPGSV,3,1,12,06,59,118,53,21,57,200,45,16,47,290,,10,33,054,*71
$GPGSV,3,2,12,17,33,061,,02,25,309,,15,12,222,39,30,12,161,48*70
$GPGSV,3,3,12,25,10,240,,13,07,340,,18,04,169,,24,01,053,*7A
$PMGNST,04.03,3,F,-88,00.0,-03307,23*4B
$GPGLL,5956.4772,N,03015.4827,E,150835.648,A*33
$GPGGA,150835.65,5956.4772,N,03015.4827,E,1,03,3.7,00027,M,,,,*2D
$GPRMC,150835.65,A,5956.4772,N,03015.4827,E,00.0,000.0,161203,09,E*46
$GPGSA,A,2,06,30,21,,,,,,,,,,03.7,03.7,*1B
$GPGSV,3,1,11,06,59,118,53,21,58,200,44,16,47,290,,10,33,054,*7C
$GPGSV,3,2,11,17,32,061,,02,25,309,,15,13,222,39,30,12,161,47*7C
$GPGSV,3,3,11,25,10,240,,13,07,340,,18,04,169,,120,12,229,*41
$PMGNST,04.03,2,T,-88,00.0,-03289,00*5E
$GPGLL,5956.4789,N,03015.4780,E,150836.656,A*39
$GPGGA,150836.66,5956.4789,N,03015.4780,E,1,03,5.9,00027,M,,,,*23
$GPRMC,150836.66,A,5956.4789,N,03015.4780,E,00.0,000.0,161203,09,E*40
$GPGSA,A,2,06,30,21,,,,,,,,,,05.9,05.9,*1B
$GPGSV,3,1,11,06,59,118,51,21,58,200,44,16,47,290,,10,33,054,*7E
$GPGSV,3,2,11,17,32,061,,02,25,309,,15,13,222,38,30,12,161,45*7F
$GPGSV,3,3,11,25,10,240,,13,07,340,,18,04,169,,120,12,229,*41
$PMGNST,04.03,2,T,-88,00.0,-03288,00*5F
$GPGLL,5956.4787,N,03015.4800,E,150837.652,A*35
$GPGGA,150837.65,5956.4787,N,03015.4800,E,1,03,5.8,00027,M,,,,*29
$GPRMC,150837.65,A,5956.4787,N,03015.4800,E,00.0,000.0,161203,09,E*4B
$GPGSA,A,2,06,30,21,,,,,,,,,,05.8,05.8,*1B
$GPGSV,3,1,11,06,59,118,51,21,58,200,44,16,47,290,,10,33,054,*7E
$GPGSV,3,2,11,17,32,061,,02,25,309,,15,13,222,36,30,12,161,46*72
$GPGSV,3,3,11,25,10,240,,13,07,340,,18,04,169,,120,12,229,*41
$PMGNST,04.03,2,T,-88,00.0,-03288,00*5F
$GPGLL,5956.4784,N,03015.4787,E,150838.648,A*32
$GPGGA,150838.65,5956.4784,N,03015.4787,E,1,03,5.7,00027,M,,,,*2A
$GPRMC,150838.65,A,5956.4784,N,03015.4787,E,00.0,000.0,161203,09,E*47
$GPGSA,A,2,06,30,21,,,,,,,,,,05.7,05.7,*1B
$GPGSV,3,1,11,06,59,118,52,21,58,200,45,16,47,290,,10,33,054,*7C
$GPGSV,3,2,11,17,32,061,,02,25,309,,15,13,222,38,30,12,161,48*72
$GPGSV,3,3,11,25,10,240,,13,07,340,,18,04,169,,120,12,229,*41
$PMGNST,04.03,2,T,-88,00.0,-03287,00*50
$GPGLL,5956.4783,N,03015.4780,E,150839.656,A*3C
$GPGGA,150839.66,5956.4783,N,03015.4780,E,1,03,5.6,00027,M,,,,*29
$GPRMC,150839.66,A,5956.4783,N,03015.4780,E,00.0,000.0,161203,09,E*45
$GPGSA,A,2,06,30,21,,,,,,,,,,05.6,05.6,*1B
$GPGSV,3,1,11,06,59,118,53,21,58,200,45,16,47,290,,10,33,054,*7D
$GPGSV,3,2,11,17,32,061,,02,25,309,,15,13,222,39,30,12,161,47*7C
$GPGSV,3,3,11,25,10,240,,13,07,340,,18,04,169,,120,12,229,*41
$PMGNST,04.03,2,T,-88,00.0,-03287,00*50
$GPGLL,5956.4780,N,03015.4782,E,150840.652,A*37
$GPGGA,150840.65,5956.4780,N,03015.4782,E,1,03,5.6,00027,M,,,,*25
$GPRMC,150840.65,A,5956.4780,N,03015.4782,E,00.0,000.0,161203,09,E*49
$GPGSA,A,2,06,30,21,,,,,,,,,,05.6,05.6,*1B
$GPGSV,3,1,11,06,59,118,53,21,58,200,45,16,47,290,,10,33,054,*7D
$GPGSV,3,2,11,17,32,061,,02,25,309,,15,13,222,,30,12,161,47*76
$GPGSV,3,3,11,25,10,240,,13,07,340,,18,04,169,,120,12,229,*41
$PMGNST,04.03,2,T,-88,00.0,-03286,00*51
$GPGLL,5956.4780,N,03015.4783,E,150841.648,A*3C
$GPGGA,150841.65,5956.4780,N,03015.4783,E,1,03,5.7,00027,M,,,,*24
$GPRMC,150841.65,A,5956.4780,N,03015.4783,E,00.0,000.0,161203,09,E*49
$GPGSA,A,2,06,30,21,,,,,,,,,,05.7,05.7,*1B
$GPGSV,3,1,11,06,59,118,52,21,58,200,45,16,47,290,,10,33,054,*7C
$GPGSV,3,2,11,17,32,061,,02,25,309,,15,13,222,,30,12,161,48*79
$GPGSV,3,3,11,25,10,240,,13,07,340,,18,04,169,,120,12,229,*41
$PMGNST,04.03,2,T,-88,00.0,-03286,00*51
$GPGLL,5956.4779,N,03015.4782,E,150842.656,A*37
$GPGGA,150842.66,5956.4779,N,03015.4782,E,1,03,5.7,00027,M,,,,*23
$GPRMC,150842.66,A,5956.4779,N,03015.4782,E,00.0,000.0,161203,09,E*4E
$GPGSA,A,2,06,30,21,,,,,,,,,,05.7,05.7,*1B
$GPGSV,3,1,11,06,59,118,53,21,58,200,45,16,47,290,,10,33,054,*7D
$GPGSV,3,2,11,17,32,061,,02,25,309,,15,13,222,,30,12,161,47*76
$GPGSV,3,3,11,25,10,240,,13,07,340,,18,04,169,,120,12,229,*41
$PMGNST,04.03,2,T,-88,00.0,-03285,00*52
$GPGLL,5956.4779,N,03015.4785,E,150843.653,A*34
$GPGGA,150843.65,5956.4779,N,03015.4785,E,1,03,5.7,00027,M,,,,*26
$GPRMC,150843.65,A,5956.4779,N,03015.4785,E,00.0,000.0,161203,09,E*4B
$GPGSA,A,2,06,30,21,,,,,,,,,,05.7,05.7,*1B
$GPGSV,3,1,11,06,59,118,53,21,58,200,46,16,47,290,,10,33,054,*7E
$GPGSV,3,2,11,17,32,061,,02,25,309,,15,13,222,,30,12,161,47*76
$GPGSV,3,3,11,25,10,240,,13,07,340,,18,04,169,,120,12,229,*41
$PMGNST,04.03,2,T,-88,00.0,-03285,00*52
$GPGLL,5956.4778,N,03015.4790,E,150844.649,A*3D
$GPGGA,150844.65,5956.4778,N,03015.4790,E,1,03,5.6,00027,M,,,,*25
$GPRMC,150844.65,A,5956.4778,N,03015.4790,E,00.0,000.0,161203,09,E*49
$GPGSA,A,2,06,30,21,,,,,,,,,,05.6,05.6,*1B
$GPGSV,3,1,11,06,59,118,52,21,58,200,46,16,47,290,,10,33,054,*7F
$GPGSV,3,2,11,17,32,061,,02,25,309,,15,13,222,,30,12,161,48*79
$GPGSV,3,3,11,25,10,240,,13,07,340,,18,04,169,,120,12,229,*41
$PMGNST,04.03,2,T,-88,00.0,-03284,00*53
$GPGLL,5956.4774,N,03015.4800,E,150845.657,A*39
$GPGGA,150845.66,5956.4774,N,03015.4800,E,1,03,5.6,00027,M,,,,*2D
$GPRMC,150845.66,A,5956.4774,N,03015.4800,E,00.0,000.0,161203,09,E*41
$GPGSA,A,2,06,30,21,,,,,,,,,,05.6,05.6,*1B
$GPGSV,3,1,11,06,59,118,53,21,58,200,46,16,47,290,,10,33,054,*7E
$GPGSV,3,2,11,17,32,061,,02,25,309,,15,13,222,,30,12,161,47*76
$GPGSV,3,3,11,25,10,240,,13,07,340,,18,04,169,,120,12,229,*41
$PMGNST,04.03,2,T,-88,00.0,-03284,00*53
$GPGLL,5956.4773,N,03015.4807,E,150846.653,A*3E
$GPGGA,150846.65,5956.4773,N,03015.4807,E,1,03,5.6,00027,M,,,,*2D
$GPRMC,150846.65,A,5956.4773,N,03015.4807,E,00.0,000.0,161203,09,E*41
$GPGSA,A,2,06,30,21,,,,,,,,,,05.6,05.6,*1B
$GPGSV,3,1,11,06,59,118,52,21,58,200,46,16,47,290,,10,33,054,*7F
$GPGSV,3,2,11,17,32,061,,02,25,309,,15,13,222,,30,12,161,47*76
$GPGSV,3,3,11,25,10,240,,13,07,340,,18,04,169,,120,12,229,*41
$PMGNST,04.03,2,T,-88,00.0,-03283,00*54
$GPGLL,5956.4772,N,03015.4812,E,150847.649,A*31
$GPGGA,150847.65,5956.4772,N,03015.4812,E,1,03,5.6,00027,M,,,,*29
$GPRMC,150847.65,A,5956.4772,N,03015.4812,E,00.0,000.0,161203,09,E*45
$GPGSA,A,2,06,30,21,,,,,,,,,,05.6,05.6,*1B
$GPGSV,3,1,10,06,59,118,52,21,58,200,46,16,47,290,,10,33,054,*7E
$GPGSV,3,2,10,17,32,061,,02,25,309,,15,13,222,,30,12,161,47*77
$GPGSV,3,3,10,25,10,240,,13,07,340,,120,12,229,,131,16,142,*70
$PMGNST,04.03,2,T,-88,00.0,-03283,00*54
$GPGLL,5956.4773,N,03015.4815,E,150848.657,A*37
$GPGGA,150848.66,5956.4773,N,03015.4815,E,1,03,5.7,00027,M,,,,*22
$GPRMC,150848.66,A,5956.4773,N,03015.4815,E,00.0,000.0,161203,09,E*4F
$GPGSA,A,2,06,30,21,,,,,,,,,,05.7,05.7,*1B
$GPGSV,3,1,10,06,59,118,52,21,58,200,46,16,47,290,,10,33,054,*7E
$GPGSV,3,2,10,17,32,061,,02,25,309,,15,13,222,,30,12,161,47*77
$GPGSV,3,3,10,25,10,240,,13,07,340,,120,12,229,,131,16,142,*70
$PMGNST,04.03,2,T,-88,00.0,-03282,00*55
$GPGLL,5956.4774,N,03015.4818,E,150849.653,A*38
$GPGGA,150849.65,5956.4774,N,03015.4818,E,1,03,5.7,00027,M,,,,*2A
$GPRMC,150849.65,A,5956.4774,N,03015.4818,E,00.0,000.0,161203,09,E*47
$GPGSA,A,2,06,30,21,,,,,,,,,,05.7,05.7,*1B
$GPGSV,3,1,10,06,59,118,52,21,58,200,46,16,47,290,,10,33,054,*7E
$GPGSV,3,2,10,17,32,061,,02,25,309,,15,13,222,,30,12,161,47*77
$GPGSV,3,3,10,25,10,240,,13,07,340,,120,12,229,,131,16,142,*70
$PMGNST,04.03,2,T,-88,00.0,-03282,00*55
$GPGLL,5956.4773,N,03015.4826,E,150850.649,A*31
$GPGGA,150850.65,5956.4773,N,03015.4826,E,1,03,5.7,00027,M,,,,*28
$GPRMC,150850.65,A,5956.4773,N,03015.4826,E,00.0,000.0,161203,09,E*45
$GPGSA,A,2,06,30,21,,,,,,,,,,05.7,05.7,*1B
$GPGSV,3,1,10,06,59,118,52,21,58,200,46,16,47,290,,10,33,054,*7E
$GPGSV,3,2,10,17,32,061,,02,25,309,,15,13,222,,30,12,161,48*78
$GPGSV,3,3,10,25,10,240,,13,07,340,,120,12,229,,131,16,142,*70
$PMGNST,04.03,2,T,-88,00.0,-03282,00*55
$GPGLL,5956.4774,N,03015.4830,E,150851.657,A*3F
$GPGGA,150851.66,5956.4774,N,03015.4830,E,1,03,5.6,00027,M,,,,*2B
$GPRMC,150851.66,A,5956.4774,N,03015.4830,E,00.0,000.0,161203,09,E*47
$GPGSA,A,2,06,30,21,,,,,,,,,,05.6,05.6,*1B
$GPGSV,3,1,10,06,59,118,52,21,58,200,46,16,47,290,,10,33,054,*7E
$GPGSV,3,2,10,17,32,061,,02,25,309,,15,13,222,,30,12,161,47*77
$GPGSV,3,3,10,25,10,240,,13,07,340,,120,12,229,,131,16,142,*70
$PMGNST,04.03,2,T,-88,00.0,-03281,00*56
$GPGLL,5956.4774,N,03015.4834,E,150852.653,A*3C
$GPGGA,150852.65,5956.4774,N,03015.4834,E,1,03,5.7,00027,M,,,,*2E
$GPRMC,150852.65,A,5956.4774,N,03015.4834,E,00.0,000.0,161203,09,E*43
$GPGSA,A,2,06,30,21,,,,,,,,,,05.7,05.7,*1B
$GPGSV,3,1,10,06,59,118,52,21,58,200,46,16,47,290,,10,33,054,*7E
$GPGSV,3,2,10,17,32,061,,02,25,309,,15,13,222,,30,12,161,48*78
$GPGSV,3,3,10,25,10,240,,13,07,340,,120,12,229,,131,16,142,*70
$PMGNST,04.03,2,T,-88,00.0,-03281,00*56
$GPGLL,5956.4774,N,03015.4837,E,150853.649,A*35
$GPGGA,150853.65,5956.4774,N,03015.4837,E,1,03,5.6,00027,M,,,,*2D
$GPRMC,150853.65,A,5956.4774,N,03015.4837,E,00.0,000.0,161203,09,E*41
$GPGSA,A,2,06,30,21,,,,,,,,,,05.6,05.6,*1B
$GPGSV,3,1,10,06,59,118,52,21,58,200,46,16,47,290,,10,33,054,*7E
$GPGSV,3,2,10,17,32,061,,02,25,309,,15,13,222,,30,12,161,47*77
$GPGSV,3,3,10,25,10,240,,13,07,340,,120,12,229,,131,16,142,*70
$PMGNST,04.03,2,T,-88,00.0,-03280,00*57
$GPGLL,5956.4773,N,03015.4844,E,150854.657,A*3E
$GPGGA,150854.66,5956.4773,N,03015.4844,E,1,03,5.7,00027,M,,,,*2B
$GPRMC,150854.66,A,5956.4773,N,03015.4844,E,00.0,000.0,161203,09,E*46
$GPGSA,A,2,06,30,21,,,,,,,,,,05.7,05.7,*1B
$GPGSV,3,1,10,06,59,118,52,21,58,200,47,16,47,290,,10,33,054,*7F
$GPGSV,3,2,10,17,32,061,,02,25,309,,15,13,222,,30,12,161,47*77
$GPGSV,3,3,10,25,10,240,,13,07,340,,120,12,229,,131,16,142,*70
$PMGNST,04.03,2,T,-88,00.0,-03280,00*57
$GPGLL,5956.4774,N,03015.4846,E,150855.653,A*3E
$GPGGA,150855.65,5956.4774,N,03015.4846,E,1,03,5.7,00027,M,,,,*2C
$GPRMC,150855.65,A,5956.4774,N,03015.4846,E,00.0,000.0,161203,09,E*41
$GPGSA,A,2,06,30,21,,,,,,,,,,05.7,05.7,*1B
$GPGSV,3,1,10,06,59,118,52,21,58,200,46,16,47,290,,10,33,054,*7E
$GPGSV,3,2,10,17,32,061,,02,25,309,,15,13,222,,30,12,161,48*78
$GPGSV,3,3,10,25,10,240,,13,07,340,,120,12,229,,131,16,142,*70
$PMGNST,04.03,2,T,-88,00.0,-03280,00*57
$GPGLL,5956.4775,N,03015.4846,E,150856.649,A*37
$GPGGA,150856.65,5956.4775,N,03015.4846,E,1,03,5.6,00027,M,,,,*2F
$GPRMC,150856.65,A,5956.4775,N,03015.4846,E,00.0,000.0,161203,09,E*43
$GPGSA,A,2,06,30,21,,,,,,,,,,05.6,05.6,*1B
$GPGSV,3,1,10,06,59,118,52,21,58,200,46,16,47,290,,10,33,054,*7E
$GPGSV,3,2,10,17,32,061,,02,25,309,,15,13,222,,30,12,161,47*77
$GPGSV,3,3,10,25,10,240,,13,07,340,,120,12,229,,131,16,142,*70
$PMGNST,04.03,2,T,-88,00.0,-03279,00*51
$GPGLL,5956.4775,N,03015.4845,E,150857.657,A*3A
$GPGGA,150857.66,5956.4775,N,03015.4845,E,1,03,5.7,00027,M,,,,*2F
$GPRMC,150857.66,A,5956.4775,N,03015.4845,E,00.0,000.0,161203,09,E*42
$GPGSA,A,2,06,30,21,,,,,,,,,,05.7,05.7,*1B
$GPGSV,3,1,10,06,59,118,52,21,58,200,46,16,47,290,,10,33,054,*7E
$GPGSV,3,2,10,17,32,061,,02,25,309,,15,13,222,,30,12,161,48*78
$GPGSV,3,3,10,25,10,240,,13,07,340,,120,12,229,,131,16,142,*70
$PMGNST,04.03,2,T,-88,00.0,-03279,00*51
$GPGLL,5956.4776,N,03015.4844,E,150858.653,A*33
$GPGGA,150858.65,5956.4776,N,03015.4844,E,1,03,5.6,00027,M,,,,*20
$GPRMC,150858.65,A,5956.4776,N,03015.4844,E,00.0,000.0,161203,09,E*4C
$GPGSA,A,2,06,30,21,,,,,,,,,,05.6,05.6,*1B
$GPGSV,3,1,10,06,59,118,52,21,58,200,46,16,47,290,,10,33,054,*7E
$GPGSV,3,2,10,17,32,061,,02,25,309,,15,13,222,,30,12,161,47*77
$GPGSV,3,3,10,25,10,240,,13,07,340,,120,12,229,,131,16,142,*70
$PMGNST,04.03,2,T,-88,00.0,-03279,00*51
$GPGLL,5956.4777,N,03015.4842,E,150859.649,A*3E
$GPGGA,150859.65,5956.4777,N,03015.4842,E,1,03,5.7,00027,M,,,,*27
$GPRMC,150859.65,A,5956.4777,N,03015.4842,E,00.0,000.0,161203,09,E*4A
$GPGSA,A,2,06,30,21,,,,,,,,,,05.7,05.7,*1B
$GPGSV,3,1,10,06,59,118,52,21,58,200,46,16,47,290,,10,33,054,*7E
$GPGSV,3,2,10,17,32,061,,02,25,309,,15,13,222,,30,12,161,47*77
$GPGSV,3,3,10,25,10,240,,13,07,340,,120,12,229,,131,16,142,*70
$PMGNST,04.03,2,T,-88,00.0,-03278,00*50
$GPGLL,5956.4777,N,03015.4842,E,150900.657,A*3C
$GPGGA,150900.66,5956.4777,N,03015.4842,E,1,03,5.7,00027,M,,,,*29
$GPRMC,150900.66,A,5956.4777,N,03015.4842,E,00.0,000.0,161203,09,E*44
$GPGSA,A,2,06,30,21,,,,,,,,,,05.7,05.7,*1B
$GPGSV,3,1,10,06,59,118,52,21,58,200,46,16,47,290,,10,33,054,*7E
$GPGSV,3,2,10,17,32,061,,02,25,309,,15,13,222,,30,12,161,48*78
$GPGSV,3,3,10,25,10,240,,13,07,340,,120,12,229,,131,16,142,*70
$PMGNST,04.03,2,T,-88,00.0,-03278,00*50
$GPGLL,5956.4778,N,03015.4841,E,150901.653,A*35
$GPGGA,150901.65,5956.4778,N,03015.4841,E,1,03,5.7,00027,M,,,,*27
$GPRMC,150901.65,A,5956.4778,N,03015.4841,E,00.0,000.0,161203,09,E*4A
$GPGSA,A,2,06,30,21,,,,,,,,,,05.7,05.7,*1B
$GPGSV,3,1,10,06,59,118,52,21,58,200,46,16,47,290,,10,33,054,*7E
$GPGSV,3,2,10,17,32,061,,02,25,309,,15,13,222,,30,12,161,48*78
$GPGSV,3,3,10,25,10,240,,13,07,340,,120,12,229,,131,16,142,*70
$PMGNST,04.03,2,T,-88,00.0,-03278,00*50
$GPGLL,5956.4778,N,03015.4839,E,150902.649,A*32
$GPGGA,150902.65,5956.4778,N,03015.4839,E,1,03,5.7,00027,M,,,,*2B
$GPRMC,150902.65,A,5956.4778,N,03015.4839,E,00.0,000.0,161203,09,E*46
$GPGSA,A,2,06,30,21,,,,,,,,,,05.7,05.7,*1B
$GPGSV,3,1,10,06,59,118,51,21,58,200,46,16,47,290,,10,33,054,*7D
$GPGSV,3,2,10,17,32,061,,02,25,309,,15,13,222,,30,12,161,47*77
$GPGSV,3,3,10,25,10,240,,13,07,340,,120,12,229,,131,16,142,*70
$PMGNST,04.03,2,T,-88,00.0,-03278,00*50
$GPGLL,5956.4779,N,03015.4840,E,150903.657,A*33
$GPGGA,150903.66,5956.4779,N,03015.4840,E,1,03,5.7,00027,M,,,,*26
$GPRMC,150903.66,A,5956.4779,N,03015.4840,E,00.0,000.0,161203,09,E*4B
$GPGSA,A,2,06,30,21,,,,,,,,,,05.7,05.7,*1B
$GPGSV,3,1,10,06,59,118,51,21,58,200,47,16,47,290,,10,33,054,*7C
$GPGSV,3,2,10,17,32,061,,02,25,309,,15,13,222,,30,12,161,47*77
$GPGSV,3,3,10,25,10,240,,13,07,340,,120,12,229,,131,16,142,*70
$PMGNST,04.03,2,T,-88,00.0,-03278,00*50
$GPGLL,5956.4780,N,03015.4840,E,150904.653,A*36
$GPGGA,150904.65,5956.4780,N,03015.4840,E,1,03,5.6,00027,M,,,,*25
$GPRMC,150904.65,A,5956.4780,N,03015.4840,E,00.0,000.0,161203,09,E*49
$GPGSA,A,2,06,30,21,,,,,,,,,,05.6,05.6,*1B
$GPGSV,3,1,10,06,59,118,51,21,58,200,46,16,47,290,,10,33,054,*7D
$GPGSV,3,2,10,17,32,061,,02,25,309,,15,13,222,,30,12,161,47*77
$GPGSV,3,3,10,25,10,240,,13,07,340,,120,12,229,,131,16,142,*70
$PMGNST,04.03,2,T,-88,00.0,-03277,00*5F
$GPGLL,5956.4780,N,03015.4842,E,150905.649,A*3E
$GPGGA,150905.65,5956.4780,N,03015.4842,E,1,03,5.7,00027,M,,,,*27
$GPRMC,150905.65,A,5956.4780,N,03015.4842,E,00.0,000.0,161203,09,E*4A
$GPGSA,A,2,06,30,21,,,,,,,,,,05.7,05.7,*1B
$GPGSV,3,1,10,06,59,118,51,21,58,200,47,16,47,290,,10,33,054,*7C
$GPGSV,3,2,10,17,32,061,,02,25,309,,15,13,222,,30,12,161,47*77
$GPGSV,3,3,10,25,10,240,,13,07,340,,120,12,229,,131,16,142,*70
$PMGNST,04.03,2,T,-88,00.0,-03277,00*5F
$GPGLL,5956.4781,N,03015.4843,E,150906.657,A*32
$GPGGA,150906.66,5956.4781,N,03015.4843,E,1,03,5.7,00027,M,,,,*27
$GPRMC,150906.66,A,5956.4781,N,03015.4843,E,00.0,000.0,161203,09,E*4A
$GPGSA,A,2,06,30,21,,,,,,,,,,05.7,05.7,*1B
$GPGSV,3,1,10,06,59,118,51,21,58,200,47,16,47,290,,10,33,054,*7C
$GPGSV,3,2,10,17,32,061,,02,25,309,,15,13,222,,30,12,161,47*77
$GPGSV,3,3,10,25,10,240,,13,07,340,,120,12,229,,131,16,142,*70
$PMGNST,04.03,2,T,-88,00.0,-03277,00*5F
$GPGLL,5956.4781,N,03015.4845,E,150907.653,A*31
$GPGGA,150907.65,5956.4781,N,03015.4845,E,1,03,5.6,00027,M,,,,*22
$GPRMC,150907.65,A,5956.4781,N,03015.4845,E,00.0,000.0,161203,09,E*4E
$GPGSA,A,2,06,30,21,,,,,,,,,,05.6,05.6,*1B
$GPGSV,3,1,10,06,59,118,51,21,58,200,47,16,47,290,,10,33,054,*7C
$GPGSV,3,2,10,17,32,061,,02,25,309,,15,13,222,,30,12,161,47*77
$GPGSV,3,3,10,25,10,240,,13,07,340,,120,12,229,,131,16,142,*70
$PMGNST,04.03,2,T,-88,00.0,-03277,00*5F
$GPGLL,5956.4782,N,03015.4846,E,150908.649,A*35
$GPGGA,150908.65,5956.4782,N,03015.4846,E,1,03,5.7,00027,M,,,,*2C
$GPRMC,150908.65,A,5956.4782,N,03015.4846,E,00.0,000.0,161203,09,E*41
$GPGSA,A,2,06,30,21,,,,,,,,,,05.7,05.7,*1B
$GPGSV,3,1,10,06,59,118,51,21,58,200,47,16,47,290,,10,33,054,*7C
$GPGSV,3,2,10,17,32,061,,02,25,309,,15,13,222,,30,12,161,47*77
$GPGSV,3,3,10,25,10,240,,13,07,340,,120,12,229,,131,16,142,*70
$PMGNST,04.03,2,T,-88,00.0,-03277,00*5F
$GPGLL,5956.4782,N,03015.4850,E,150909.657,A*3C
$GPGGA,150909.66,5956.4782,N,03015.4850,E,1,03,5.6,00027,M,,,,*28
$GPRMC,150909.66,A,5956.4782,N,03015.4850,E,00.0,000.0,161203,09,E*44
$GPGSA,A,2,06,30,21,,,,,,,,,,05.6,05.6,*1B
$GPGSV,3,1,10,06,59,118,51,21,58,200,48,16,47,290,,10,33,054,*73
$GPGSV,3,2,10,17,32,061,,02,25,309,,15,13,222,,30,12,161,48*78
$GPGSV,3,3,10,25,10,240,,13,07,340,,120,12,229,,131,16,142,*70
$PMGNST,04.03,2,T,-88,00.0,-03276,00*5E
$GPGLL,5956.4783,N,03015.4853,E,150910.653,A*32
$GPGGA,150910.65,5956.4783,N,03015.4853,E,1,03,5.7,00027,M,,,,*20
$GPRMC,150910.65,A,5956.4783,N,03015.4853,E,00.0,000.0,161203,09,E*4D
$GPGSA,A,2,06,21,30,,,,,,,,,,05.7,05.7,*1B
$GPGSV,3,1,10,06,59,118,51,21,58,200,47,16,47,290,,10,33,054,*7C
$GPGSV,3,2,10,17,32,061,,02,25,309,,15,13,222,,30,12,161,47*77
$GPGSV,3,3,10,25,10,240,,13,07,340,,120,12,229,,131,16,142,*70
$PMGNST,04.03,2,T,-88,00.0,-03276,00*5E
$GPGLL,5956.4783,N,03015.4855,E,150911.649,A*3E
$GPGGA,150911.65,5956.4783,N,03015.4855,E,1,03,5.7,00027,M,,,,*27
$GPRMC,150911.65,A,5956.4783,N,03015.4855,E,00.0,000.0,161203,09,E*4A
$GPGSA,A,2,06,21,30,,,,,,,,,,05.7,05.7,*1B
$GPGSV,3,1,10,06,59,118,51,21,58,200,48,16,47,290,,10,33,054,*73
$GPGSV,3,2,10,17,32,061,,02,25,309,,15,13,222,,30,12,161,48*78
$GPGSV,3,3,10,25,10,240,,13,07,340,,120,12,229,,131,16,142,*70
$PMGNST,04.03,2,T,-88,00.0,-03276,00*5E
$GPGLL,5956.4784,N,03015.4857,E,150912.657,A*37
$GPGGA,150912.66,5956.4784,N,03015.4857,E,1,03,5.7,00027,M,,,,*22
$GPRMC,150912.66,A,5956.4784,N,03015.4857,E,00.0,000.0,161203,09,E*4F
$GPGSA,A,2,06,21,30,,,,,,,,,,05.7,05.7,*1B
$GPGSV,3,1,10,06,59,118,51,21,58,200,48,16,47,290,,10,33,054,*73
$GPGSV,3,2,10,17,32,061,,02,25,309,,15,13,222,,30,12,161,48*78
$GPGSV,3,3,10,25,10,240,,13,07,340,,120,12,229,,131,16,142,*70
$PMGNST,04.03,2,T,-88,00.0,-03276,00*5E
$GPGLL,5956.4784,N,03015.4860,E,150913.653,A*36
$GPGGA,150913.65,5956.4784,N,03015.4860,E,1,03,5.7,00027,M,,,,*24
$GPRMC,150913.65,A,5956.4784,N,03015.4860,E,00.0,000.0,161203,09,E*49
$GPGSA,A,2,06,21,30,,,,,,,,,,05.7,05.7,*1B
$GPGSV,3,1,10,06,59,118,51,21,58,200,48,16,47,290,,10,33,054,*73
$GPGSV,3,2,10,17,32,061,,02,25,309,,15,13,222,,30,12,161,48*78
$GPGSV,3,3,10,25,10,240,,13,07,340,,120,12,229,,131,16,142,*70
$PMGNST,04.03,2,T,-88,00.0,-03276,00*5E
$GPGLL,5956.4784,N,03015.4862,E,150914.649,A*38
$GPGGA,150914.65,5956.4784,N,03015.4862,E,1,03,5.7,00027,M,,,,*21
$GPRMC,150914.65,A,5956.4784,N,03015.4862,E,00.0,000.0,161203,09,E*4C
$GPGSA,A,2,06,21,30,,,,,,,,,,05.7,05.7,*1B
$GPGSV,3,1,10,06,59,118,51,21,58,200,48,16,47,290,,10,33,054,*73
$GPGSV,3,2,10,17,32,061,,02,25,309,,15,13,222,,30,12,161,47*77
$GPGSV,3,3,10,25,10,240,,13,07,340,,120,12,229,,131,16,142,*70
$PMGNST,04.03,2,T,-88,00.0,-03276,00*5E
$GPGLL,5956.4785,N,03015.4864,E,150915.657,A*31
$GPGGA,150915.66,5956.4785,N,03015.4864,E,1,03,5.7,00027,M,,,,*24
$GPRMC,150915.66,A,5956.4785,N,03015.4864,E,00.0,000.0,161203,09,E*49
$GPGSA,A,2,06,21,30,,,,,,,,,,05.7,05.7,*1B
$GPGSV,3,1,10,06,59,118,51,21,58,200,48,16,47,290,,10,33,054,*73
$GPGSV,3,2,10,17,32,061,,02,25,309,,15,13,222,,30,12,161,48*78
$GPGSV,3,3,10,25,10,240,,13,07,340,,120,12,229,,131,16,142,*70
$PMGNST,04.03,2,T,-88,00.0,-03275,00*5D
$GPGLL,5956.4785,N,03015.4866,E,150916.653,A*34
$GPGGA,150916.65,5956.4785,N,03015.4866,E,1,03,5.6,00027,M,,,,*27
$GPRMC,150916.65,A,5956.4785,N,03015.4866,E,00.0,000.0,161203,09,E*4B
$GPGSA,A,2,06,21,30,,,,,,,,,,05.6,05.6,*1B
$GPGSV,3,1,10,06,59,118,51,21,58,200,48,16,47,290,,10,33,054,*73
$GPGSV,3,2,10,17,32,061,,02,25,309,,15,13,222,,30,12,161,48*78
$GPGSV,3,3,10,25,10,240,,13,07,340,,120,12,229,,131,16,142,*70
$PMGNST,04.03,2,T,-88,00.0,-03275,00*5D
$GPGLL,5956.4784,N,03015.4869,E,150917.649,A*30
$GPGGA,150917.65,5956.4784,N,03015.4869,E,1,03,5.7,00027,M,,,,*29
$GPRMC,150917.65,A,5956.4784,N,03015.4869,E,00.0,000.0,161203,09,E*44
$GPGSA,A,2,06,21,30,,,,,,,,,,05.7,05.7,*1B
$GPGSV,3,1,10,06,59,118,51,21,58,200,48,16,47,290,,10,33,054,*73
$GPGSV,3,2,10,17,32,061,,02,25,309,,15,13,222,,30,12,161,47*77
$GPGSV,3,3,10,25,10,240,,13,07,340,,120,12,229,,131,16,142,*70
$PMGNST,04.03,2,T,-88,00.0,-03275,00*5D
$GPGLL,5956.4784,N,03015.4872,E,150918.657,A*3A
$GPGGA,150918.66,5956.4784,N,03015.4872,E,1,03,5.7,00027,M,,,,*2F
$GPRMC,150918.66,A,5956.4784,N,03015.4872,E,00.0,000.0,161203,09,E*42
$GPGSA,A,2,06,21,30,,,,,,,,,,05.7,05.7,*1B
$GPGSV,3,1,10,06,59,118,51,21,58,200,48,16,47,290,,10,33,054,*73
$GPGSV,3,2,10,17,32,061,,02,25,309,,15,13,222,,30,12,161,48*78
$GPGSV,3,3,10,25,10,240,,13,07,340,,120,12,229,,131,16,142,*70
$PMGNST,04.03,2,T,-88,00.0,-03275,00*5D
$GPGLL,5956.4784,N,03015.4874,E,150919.653,A*39
$GPGGA,150919.65,5956.4784,N,03015.4874,E,1,03,5.6,00027,M,,,,*2A
$GPRMC,150919.65,A,5956.4784,N,03015.4874,E,00.0,000.0,161203,09,E*46
$GPGSA,A,2,06,21,30,,,,,,,,,,05.6,05.6,*1B
$GPGSV,3,1,10,06,59,118,51,21,58,200,48,16,47,290,,10,33,054,*73
$GPGSV,3,2,10,17,32,061,,02,25,309,,15,13,222,,30,12,161,47*77
$GPGSV,3,3,10,25,10,240,,13,07,340,,120,12,229,,131,16,142,*70
$PMGNST,04.03,2,T,-88,00.0,-03275,00*5D
$GPGLL,5956.4784,N,03015.4876,E,150920.649,A*3A
$GPGGA,150920.65,5956.4784,N,03015.4876,E,1,03,5.6,00027,M,,,,*22
$GPRMC,150920.65,A,5956.4784,N,03015.4876,E,00.0,000.0,161203,09,E*4E
$GPGSA,A,2,06,21,30,,,,,,,,,,05.6,05.6,*1B
$GPGSV,3,1,10,06,59,118,51,21,58,200,48,16,47,290,,10,33,054,*73
$GPGSV,3,2,10,17,32,061,,02,25,309,,15,13,222,,30,12,161,47*77
$GPGSV,3,3,10,25,10,240,,13,07,340,,120,12,229,,131,16,142,*70
$PMGNST,04.03,2,T,-88,00.0,-03275,00*5D
$GPGLL,5956.4784,N,03015.4877,E,150921.657,A*35
$GPGGA,150921.66,5956.4784,N,03015.4877,E,1,03,5.7,00027,M,,,,*20
$GPRMC,150921.66,A,5956.4784,N,03015.4877,E,00.0,000.0,161203,09,E*4D
$GPGSA,A,2,06,21,30,,,,,,,,,,05.7,05.7,*1B
$GPGSV,3,1,10,06,59,118,51,21,58,200,48,16,47,290,,10,33,054,*73
$GPGSV,3,2,10,17,32,061,,02,25,309,,15,13,222,,30,12,161,47*77
$GPGSV,3,3,10,25,10,240,,13,07,340,,120,12,229,,131,16,142,*70
$PMGNST,04.03,2,T,-88,00.0,-03275,00*5D
$GPGLL,5956.4784,N,03015.4878,E,150922.653,A*3D
$GPGGA,150922.65,5956.4784,N,03015.4878,E,1,03,5.6,00027,M,,,,*2E
$GPRMC,150922.65,A,5956.4784,N,03015.4878,E,00.0,000.0,161203,09,E*42
$GPGSA,A,2,06,21,30,,,,,,,,,,05.6,05.6,*1B
$GPGSV,3,1,10,06,59,118,51,21,58,200,48,16,47,290,,10,33,054,*73
$GPGSV,3,2,10,17,32,061,,02,25,309,,15,13,222,,30,12,161,48*78
$GPGSV,3,3,10,25,10,240,,13,07,340,,120,12,229,,131,16,142,*70
$PMGNST,04.03,2,T,-88,00.0,-03275,00*5D
$GPGLL,5956.4783,N,03015.4880,E,150923.649,A*37
$GPGGA,150923.65,5956.4783,N,03015.4880,E,1,03,5.7,00027,M,,,,*2E
$GPRMC,150923.65,A,5956.4783,N,03015.4880,E,00.0,000.0,161203,09,E*43
$GPGSA,A,2,06,21,30,,,,,,,,,,05.7,05.7,*1B
$GPGSV,3,1,10,06,59,118,51,21,58,200,48,16,47,290,,10,33,054,*73
$GPGSV,3,2,10,17,32,061,,02,25,309,,15,13,222,,30,12,161,47*77
$GPGSV,3,3,10,25,10,240,,13,07,340,,120,12,229,,131,16,142,*70
$PMGNST,04.03,2,T,-88,00.0,-03275,00*5D
$GPGLL,5956.4783,N,03015.4881,E,150924.657,A*3E
$GPGGA,150924.66,5956.4783,N,03015.4881,E,1,03,5.6,00027,M,,,,*2A
$GPRMC,150924.66,A,5956.4783,N,03015.4881,E,00.0,000.0,161203,09,E*46
$GPGSA,A,2,06,21,30,,,,,,,,,,05.6,05.6,*1B
$GPGSV,3,1,10,06,59,118,51,21,58,200,48,16,47,290,,10,33,054,*73
$GPGSV,3,2,10,17,32,061,,02,25,309,,15,13,222,,30,12,161,47*77
$GPGSV,3,3,10,25,10,240,,13,07,340,,120,12,229,,131,16,142,*70
$PMGNST,04.03,2,T,-88,00.0,-03275,00*5D
$GPGLL,5956.4783,N,03015.4882,E,150925.653,A*38
$GPGGA,150925.65,5956.4783,N,03015.4882,E,1,03,5.7,00027,M,,,,*2A
$GPRMC,150925.65,A,5956.4783,N,03015.4882,E,00.0,000.0,161203,09,E*47
$GPGSA,A,2,06,21,30,,,,,,,,,,05.7,05.7,*1B
$GPGSV,3,1,10,06,59,118,51,21,58,200,48,16,47,290,,10,33,054,*73
$GPGSV,3,2,10,17,32,061,,02,25,309,,15,13,222,,30,12,161,47*77
$GPGSV,3,3,10,25,10,240,,13,07,340,,120,12,229,,131,16,142,*70
$PMGNST,04.03,2,T,-88,00.0,-03275,00*5D
$GPGLL,5956.4783,N,03015.4884,E,150926.649,A*36
$GPGGA,150926.65,5956.4783,N,03015.4884,E,1,03,5.7,00027,M,,,,*2F
$GPRMC,150926.65,A,5956.4783,N,03015.4884,E,00.0,000.0,161203,09,E*42
$GPGSA,A,2,06,21,30,,,,,,,,,,05.7,05.7,*1B
$GPGSV,3,1,10,06,59,118,51,21,58,200,48,16,47,290,,10,33,054,*73
$GPGSV,3,2,10,17,32,061,,02,25,309,,15,13,222,,30,12,161,47*77
$GPGSV,3,3,10,25,10,240,,13,07,340,,120,12,229,,131,16,142,*70
$PMGNST,04.03,2,T,-88,00.0,-03275,00*5D
$GPGLL,5956.4782,N,03015.4885,E,150927.657,A*38
$GPGGA,150927.66,5956.4782,N,03015.4885,E,1,03,5.7,00027,M,,,,*2D
$GPRMC,150927.66,A,5956.4782,N,03015.4885,E,00.0,000.0,161203,09,E*40
$GPGSA,A,2,06,21,30,,,,,,,,,,05.7,05.7,*1B
$GPGSV,3,1,10,06,59,118,51,21,58,200,48,16,47,290,,10,33,054,*73
$GPGSV,3,2,10,17,32,061,,02,25,309,,15,13,222,,30,12,161,47*77
$GPGSV,3,3,10,25,10,240,,13,07,340,,120,12,229,,131,16,142,*70
$PMGNST,04.03,2,T,-88,00.0,-03275,00*5D
$GPGLL,5956.4782,N,03015.4887,E,150928.653,A*31
$GPGGA,150928.65,5956.4782,N,03015.4887,E,1,03,5.7,00027,M,,,,*23
$GPRMC,150928.65,A,5956.4782,N,03015.4887,E,00.0,000.0,161203,09,E*4E
$GPGSA,A,2,06,21,30,,,,,,,,,,05.7,05.7,*1B
$GPGSV,3,1,10,06,59,118,51,21,58,200,48,16,47,290,,10,33,054,*73
$GPGSV,3,2,10,17,32,061,,02,25,309,,15,13,222,,30,12,161,47*77
$GPGSV,3,3,10,25,10,240,,13,07,340,,120,12,229,,131,16,142,*70
$PMGNST,04.03,2,T,-88,00.0,-03274,00*5C
$GPGLL,5956.4782,N,03015.4888,E,150929.649,A*34
$GPGGA,150929.65,5956.4782,N,03015.4888,E,1,03,5.7,00027,M,,,,*2D
$GPRMC,150929.65,A,5956.4782,N,03015.4888,E,00.0,000.0,161203,09,E*40
$GPGSA,A,2,06,21,30,,,,,,,,,,05.7,05.7,*1B
$GPGSV,3,1,10,06,59,118,51,21,58,200,48,16,47,290,,10,33,054,*73
$GPGSV,3,2,10,17,32,061,,02,25,309,,15,13,222,,30,12,161,47*77
$GPGSV,3,3,10,25,10,240,,13,07,340,,120,12,229,,131,16,142,*70
$PMGNST,04.03,2,T,-88,00.0,-03274,00*5C
$GPGLL,5956.4782,N,03015.4889,E,150930.657,A*32
$GPGGA,150930.66,5956.4782,N,03015.4889,E,1,03,5.7,00027,M,,,,*27
$GPRMC,150930.66,A,5956.4782,N,03015.4889,E,00.0,000.0,161203,09,E*4A
$GPGSA,A,2,06,21,30,,,,,,,,,,05.7,05.7,*1B
$GPGSV,3,1,10,06,59,118,51,21,58,200,48,16,47,290,,10,33,054,*73
$GPGSV,3,2,10,17,32,061,,02,25,309,,15,13,222,,30,12,161,47*77
$GPGSV,3,3,10,25,10,240,,13,07,340,,120,12,229,,131,16,142,*70
$PMGNST,04.03,2,T,-88,00.0,-03274,00*5C
$GPGLL,5956.4782,N,03015.4889,E,150932.158,A*38
$GPGGA,150932.16,5956.4782,N,03015.4889,E,1,03,5.7,00027,M,,,,*22
$GPRMC,150932.16,A,5956.4782,N,03015.4889,E,00.0,000.0,161203,09,E*4F
$GPGSA,A,2,06,21,30,,,,,,,,,,05.7,05.7,*1B
$GPGSV,3,1,10,06,59,118,51,21,58,200,48,16,47,290,,10,33,054,*73
$GPGSV,3,2,10,17,32,061,,02,25,309,,15,13,222,,30,12,161,47*77
$GPGSV,3,3,10,25,10,240,,13,07,340,,120,12,229,,131,16,142,*70
$PMGNST,04.03,2,T,-88,00.0,-03274,23*5D
$GPGLL,5956.4781,N,03015.4890,E,150932.649,A*34
$GPGGA,150932.65,5956.4781,N,03015.4890,E,1,03,5.7,00027,M,,,,*2D
$GPRMC,150932.65,A,5956.4781,N,03015.4890,E,00.0,000.0,161203,09,E*40
$GPGSA,A,2,06,21,30,,,,,,,,,,05.7,05.7,*1B
$GPGSV,3,1,10,06,59,118,51,21,58,200,48,16,47,290,,10,33,054,*73
$GPGSV,3,2,10,17,32,061,,02,25,309,,15,13,222,,30,12,161,47*77
$GPGSV,3,3,10,25,10,240,,13,07,340,,120,12,229,,131,16,142,*70
$PMGNST,04.03,2,T,-88,00.0,-03274,00*5C
$GPGLL,5956.4781,N,03015.4891,E,150933.657,A*3B
$GPGGA,150933.66,5956.4781,N,03015.4891,E,1,03,5.7,00027,M,,,,*2E
$GPRMC,150933.66,A,5956.4781,N,03015.4891,E,00.0,000.0,161203,09,E*43
$GPGSA,A,2,06,21,30,,,,,,,,,,05.7,05.7,*1B
$GPGSV,3,1,10,06,59,118,51,21,58,200,48,16,47,290,,10,33,054,*73
$GPGSV,3,2,10,17,32,061,,02,25,309,,15,13,222,,30,12,161,47*77
$GPGSV,3,3,10,25,10,240,,13,07,340,,120,12,229,,131,16,142,*70
$PMGNST,04.03,2,T,-88,00.0,-03274,00*5C
$GPGLL,5956.4780,N,03015.4893,E,150934.653,A*3B
$GPGGA,150934.65,5956.4780,N,03015.4893,E,1,03,5.7,00027,M,,,,*29
$GPRMC,150934.65,A,5956.4780,N,03015.4893,E,00.0,000.0,161203,09,E*44
$GPGSA,A,2,06,21,30,,,,,,,,,,05.7,05.7,*1B
$GPGSV,3,1,10,06,59,118,51,21,58,200,48,16,47,290,,10,33,054,*73
$GPGSV,3,2,10,17,32,061,,02,25,309,,15,13,222,,30,12,161,48*78
$GPGSV,3,3,10,25,10,240,,13,07,340,,120,12,229,,131,16,142,*70
$PMGNST,04.03,2,T,-88,00.0,-03274,00*5C
$GPGLL,5956.4780,N,03015.4895,E,150935.649,A*37
$GPGGA,150935.65,5956.4780,N,03015.4895,E,1,03,5.7,00027,M,,,,*2E
$GPRMC,150935.65,A,5956.4780,N,03015.4895,E,00.0,000.0,161203,09,E*43
$GPGSA,A,2,06,21,30,,,,,,,,,,05.7,05.7,*1B
$GPGSV,3,1,10,06,59,118,51,21,58,200,48,16,47,290,,10,33,054,*73
$GPGSV,3,2,10,17,32,061,,02,25,309,,15,13,222,,30,12,161,48*78
$GPGSV,3,3,10,25,10,240,,13,07,340,,120,12,229,,131,16,142,*70
$PMGNST,04.03,2,T,-88,00.0,-03274,00*5C
$GPGLL,5956.4780,N,03015.4895,E,150936.657,A*3B
$GPGGA,150936.66,5956.4780,N,03015.4895,E,1,03,5.7,00027,M,,,,*2E
$GPRMC,150936.66,A,5956.4780,N,03015.4895,E,00.0,000.0,161203,09,E*43
$GPGSA,A,2,06,21,30,,,,,,,,,,05.7,05.7,*1B
$GPGSV,3,1,10,06,59,118,51,21,58,200,48,16,47,290,,10,33,054,*73
$GPGSV,3,2,10,17,32,061,,02,25,309,,15,13,222,,30,12,161,48*78
$GPGSV,3,3,10,25,10,240,,13,07,340,,120,12,229,,131,16,142,*70
$PMGNST,04.03,2,T,-88,00.0,-03274,00*5C
$GPGLL,5956.4780,N,03015.4896,E,150937.653,A*3D
$GPGGA,150937.65,5956.4780,N,03015.4896,E,1,03,5.7,00027,M,,,,*2F
$GPRMC,150937.65,A,5956.4780,N,03015.4896,E,00.0,000.0,161203,09,E*42
$GPGSA,A,2,06,21,30,,,,,,,,,,05.7,05.7,*1B
$GPGSV,3,1,10,06,59,118,51,21,58,200,48,16,47,290,,10,33,054,*73
$GPGSV,3,2,10,17,32,061,,02,25,309,,15,13,222,,30,12,161,48*78
$GPGSV,3,3,10,25,10,240,,13,07,340,,120,12,229,,131,16,142,*70
$PMGNST,04.03,2,T,-88,00.0,-03274,00*5C
$GPGLL,5956.4780,N,03015.4897,E,150938.650,A*30
$GPGGA,150938.65,5956.4780,N,03015.4897,E,1,03,5.7,00027,M,,,,*21
$GPRMC,150938.65,A,5956.4780,N,03015.4897,E,00.0,000.0,161203,09,E*4C
$GPGSA,A,2,06,21,30,,,,,,,,,,05.7,05.7,*1B
$GPGSV,3,1,10,06,59,118,51,21,58,200,48,16,47,290,,10,33,054,*73
$GPGSV,3,2,10,17,32,061,,02,25,309,,15,13,222,,30,12,161,48*78
$GPGSV,3,3,10,25,10,240,,13,07,340,,120,12,229,,131,16,142,*70
$PMGNST,04.03,2,T,-88,00.0,-03274,00*5C
$GPGLL,5956.4780,N,03015.4897,E,150939.658,A*39
$GPGGA,150939.66,5956.4780,N,03015.4897,E,1,03,5.7,00027,M,,,,*23
$GPRMC,150939.66,A,5956.4780,N,03015.4897,E,00.0,000.0,161203,09,E*4E
$GPGSA,A,2,06,21,30,,,,,,,,,,05.7,05.7,*1B
$GPGSV,3,1,10,06,59,118,51,21,58,200,48,16,47,290,,10,33,054,*73
$GPGSV,3,2,10,17,32,061,,02,25,309,,15,13,222,,30,12,161,48*78
$GPGSV,3,3,10,25,10,240,,13,07,340,,120,12,229,,131,16,142,*70
$PMGNST,04.03,2,T,-88,00.0,-03274,00*5C
$GPGLL,5956.4780,N,03015.4898,E,150940.654,A*34
$GPGGA,150940.65,5956.4780,N,03015.4898,E,1,03,5.7,00027,M,,,,*21
$GPRMC,150940.65,A,5956.4780,N,03015.4898,E,00.0,000.0,161203,09,E*4C
$GPGSA,A,2,06,30,21,,,,,,,,,,05.7,05.7,*1B
$GPGSV,3,1,10,06,59,118,51,21,58,200,48,16,47,290,,10,33,054,*73
$GPGSV,3,2,10,17,32,061,,02,25,309,,15,13,222,,30,12,161,48*78
$GPGSV,3,3,10,25,10,240,,13,07,340,,120,12,229,,131,16,142,*70
$PMGNST,04.03,2,T,-88,00.0,-03275,00*5D
$GPGLL,5956.4780,N,03015.4898,E,150941.650,A*31
$GPGGA,150941.65,5956.4780,N,03015.4898,E,1,03,5.7,00027,M,,,,*20
$GPRMC,150941.65,A,5956.4780,N,03015.4898,E,00.0,000.0,161203,09,E*4D
$GPGSA,A,2,06,30,21,,,,,,,,,,05.7,05.7,*1B
$GPGSV,3,1,10,06,59,118,51,21,58,200,48,16,47,290,,10,33,054,*73
$GPGSV,3,2,10,17,32,061,,02,25,309,,15,13,222,,30,12,161,48*78
$GPGSV,3,3,10,25,10,240,,13,07,340,,120,12,229,,131,16,142,*70
$PMGNST,04.03,2,T,-88,00.0,-03275,00*5D
$GPGLL,5956.4780,N,03015.4898,E,150942.658,A*3A
$GPGGA,150942.66,5956.4780,N,03015.4898,E,1,03,5.7,00027,M,,,,*20
$GPRMC,150942.66,A,5956.4780,N,03015.4898,E,00.0,000.0,161203,09,E*4D
$GPGSA,A,2,06,30,21,,,,,,,,,,05.7,05.7,*1B
$GPGSV,3,1,10,06,59,118,51,21,58,200,47,16,47,290,,10,33,054,*7C
$GPGSV,3,2,10,17,32,061,,02,25,309,,15,13,222,,30,12,161,48*78
$GPGSV,3,3,10,25,10,240,,13,07,340,,120,12,229,,131,16,142,*70
$PMGNST,04.03,2,T,-88,00.0,-03275,00*5D
$GPGLL,5956.4780,N,03015.4898,E,150943.654,A*37
$GPGGA,150943.65,5956.4780,N,03015.4898,E,1,03,5.7,00027,M,,,,*22
$GPRMC,150943.65,A,5956.4780,N,03015.4898,E,00.0,000.0,161203,09,E*4F
$GPGSA,A,2,06,30,21,,,,,,,,,,05.7,05.7,*1B
$GPGSV,3,1,10,06,59,118,51,21,58,200,47,16,47,290,,10,33,054,*7C
$GPGSV,3,2,10,17,32,061,,02,25,309,,15,13,222,,30,12,161,48*78
$GPGSV,3,3,10,25,10,240,,13,07,340,,120,12,229,,131,16,142,*70
$PMGNST,04.03,2,T,-88,00.0,-03275,00*5D
$GPGLL,5956.4780,N,03015.4899,E,150944.650,A*35
$GPGGA,150944.65,5956.4780,N,03015.4899,E,1,03,5.7,00027,M,,,,*24
$GPRMC,150944.65,A,5956.4780,N,03015.4899,E,00.0,000.0,161203,09,E*49
$GPGSA,A,2,06,30,21,,,,,,,,,,05.7,05.7,*1B
$GPGSV,3,1,10,06,59,118,51,21,58,200,47,16,47,290,,10,33,054,*7C
$GPGSV,3,2,10,17,32,061,,02,25,309,,15,13,222,,30,12,161,48*78
$GPGSV,3,3,10,25,10,240,,13,07,340,,120,12,229,,131,16,142,*70
$PMGNST,04.03,2,T,-88,00.0,-03275,00*5D
$GPGLL,5956.4780,N,03015.4899,E,150945.658,A*3C
$GPGGA,150945.66,5956.4780,N,03015.4899,E,1,03,5.7,00027,M,,,,*26
$GPRMC,150945.66,A,5956.4780,N,03015.4899,E,00.0,000.0,161203,09,E*4B
$GPGSA,A,2,06,30,21,,,,,,,,,,05.7,05.7,*1B
$GPGSV,3,1,10,06,59,118,51,21,58,200,47,16,47,290,,10,33,054,*7C
$GPGSV,3,2,10,17,32,061,,02,25,309,,15,13,222,,30,12,161,48*78
$GPGSV,3,3,10,25,10,240,,13,07,340,,120,12,229,,131,16,142,36*75
$PMGNST,04.03,2,T,-88,00.0,-03275,00*5D
$GPGLL,5956.4780,N,03015.4900,E,150946.654,A*32
$GPGGA,150946.65,5956.4780,N,03015.4900,E,1,03,5.7,00027,M,,,,*27
$GPRMC,150946.65,A,5956.4780,N,03015.4900,E,00.0,000.0,161203,09,E*4A
$GPGSA,A,2,06,30,21,,,,,,,,,,05.7,05.7,*1B
$GPGSV,3,1,10,06,59,118,51,21,58,200,47,16,47,290,,10,33,054,*7C
$GPGSV,3,2,10,17,32,061,,02,25,309,,15,13,222,36,30,12,161,48*7D
$GPGSV,3,3,10,25,10,240,,13,07,340,,120,12,229,,131,16,142,*70
$PMGNST,04.03,2,T,-88,00.0,-03275,00*5D
$GPGLL,5956.4780,N,03015.4900,E,150947.650,A*37
$GPGGA,150947.65,5956.4780,N,03015.4900,E,1,03,5.7,00027,M,,,,*26
$GPRMC,150947.65,A,5956.4780,N,03015.4900,E,00.0,000.0,161203,09,E*4B
$GPGSA,A,2,06,30,21,,,,,,,,,,05.7,05.7,*1B
